chain_code,iata_code,dupe_id,hotel_name,hotel_id,last_update,latitude,longitude,country_code,postal_code,city_name,address_lines,is_sponsored,master_chain_code,search_city
IW,PAR,700041562,MAISON ALBAR-LE CHAMPS-ELYSEES,IWPARMMP,2025-12-22 11:57:46,48.87541,2.29453,FR,75017,PARIS,['3 AVENUE MAC MAHON'],True,nan,Paris
BN,PAR,700031222,OCCIDENTAL PARIS LEVALLOIS,BNPAR058,2026-04-09 11:21:08,48.89818,2.28087,FR,92300,PARIS,"['8 PLACE GEORGES POMPIDOU', 'LEVALLOIS PERRET']",True,nan,Paris
WA,PAR,700027367,WLDRF ASTORIA VERSAILLES TRIANON PALACE,WAPARTRI,2026-04-11 16:24:20,48.81067,2.12022,FR,78000,VERSAILLES - PARIS,['1 BOULEVARD DE LA REINE'],True,EH,Paris
PN,PAR,700222607,THE PENINSULA PARIS,PNPARTPP,2026-03-06 08:51:54,48.87073,2.2934,FR,75116,PARIS,['19 AVENUE KLEBER'],True,nan,Paris
HL,PAR,700024440,HILTON PARIS DEFENSE,HLPAR100,2026-04-14 08:25:09,48.89305,2.23857,FR,92053,LA DEFENSE,"['2 PLACE DE LA DEFENSE', 'CNIT-B']",True,EH,Paris
IW,PAR,700971673,MAISON ALBAR - LE VENDOME,IWPARMDS,2026-02-19 10:11:22,48.87177,2.33476,FR,75009,PARIS,['7 RUE DU HELDER'],True,nan,Paris
SM,PAR,700688649,INNSIDE PARIS CHARLES DE GAULLE AIRPORT,SMPARCDG,2026-04-10 07:07:56,49.00875,2.54852,FR,95700,ROISSY EN FRANCE,['9 RUE DU VOYAGEUR'],True,nan,Paris
EN,PAR,700009475,25HOURS TERMINUS NORD,ENPARHTN,2026-03-30 11:30:03,48.87957,2.35513,FR,75010,PARIS,['12 BOULEVARD DE DENAIN'],True,RT,Paris
YR,PAR,700012072,LE ROYAL MONCEAU RAFFLES PARIS,YRPARRAF,2026-04-01 11:34:36,48.8758,2.30015,FR,75008,PARIS,"['37,  AVENUE HOCHE']",True,RT,Paris
WV,PAR,700005168,HOTEL LE BELLECHASSE SAINT-GERMAIN,WVPARBEL,2024-12-04 13:14:04,48.85965,2.3241,FR,75007,PARIS,"['8, RUE DE BELLECHASSE']",True,TC,Paris
HL,PAR,700006199,HILTON PARIS OPERA,HLPAR266,2026-03-30 04:25:22,48.8757,2.32553,FR,75008,PARIS,"['108, RUE SAINT LAZARE']",True,EH,Paris
IC,PAR,700008708,INTERCONTINENTAL PARIS LE GRAN,ICPARICB,2026-04-02 12:24:16,48.87098,2.33042,FR,75009,PARIS,['2 RUE SCRIBE'],True,6C,Paris
IW,PAR,700129881,MAISON ALBAR - LE DIAMOND,IWPAR662,2026-03-09 10:41:13,48.87538,2.32341,FR,75008,PARIS,['4 RUE DE LA PEPINIERE'],True,nan,Paris
MD,PAR,700021297,LE MERIDIEN PARIS ARC DE TRIOMPHE,MDPARMER,2026-04-13 14:00:33,48.87948,2.28499,FR,75017,PARIS,['81 BOULEVARD GOUVION SAINT CYR'],True,EM,Paris
WV,PAR,700028105,KOPSTER HOTEL PARIS PORTE DE VERSAILLES,WVPAR536,2024-03-19 06:37:35,48.83659,2.27891,FR,75015,PARIS,['1 BOULEVARD VICTOR PARIS'],True,TC,Paris
DC,PAR,700011168,HOTEL PLAZA ATHENEE,DCPAR606,2026-01-05 12:01:08,48.86618,2.30426,FR,75008,PARIS,['25 AVENUE MONTAIGNE'],True,nan,Paris
DC,PAR,700010162,LE MEURICE,DCPAR625,2026-04-14 09:15:29,48.86513,2.32812,FR,75001,PARIS,['228 RUE DE RIVOLI'],True,nan,Paris
WV,PAR,701127629,KOPSTER HOTEL RESIDENCE PARIS COLOMBES,WVPAR366,2024-08-31 09:16:18,48.93329,2.25455,FR,92700,COLOMBES,['63 RUE GERMAINE TILLION'],True,TC,Paris
BW,PAR,700024479,BW QUARTIER LATIN PANTHEON,BWPAR578,2025-12-30 11:00:55,48.84365,2.35246,FR,75005,PARIS,['71 RUE MONGE'],False,EW,Paris
RT,PAR,700183338,IBIS BUDGET ISSY LES MOULINEAUX OUEST,RTPARMLX,2026-04-14 09:15:16,48.82426,2.26067,FR,92130,ISSY-LES-MOULINEAUX,"['12 RUE JACQUES HENRI LARTIGUE', 'ZAC GARIBALDI']",False,RT,Paris
AC,PAR,700286712,BELFORT,ACPARI04,2026-03-06 10:36:43,48.85696,2.38486,FR,75011,PARIS,['22 RUE DE BELFORT'],False,nan,Paris
RT,PAR,700091965,IBIS MARNE LA VALLEE NOISY,RTPARMAR,2026-04-01 07:58:16,48.83779,2.54171,FR,93160,NOISY LE GRAND,"['4 ALLEE BIENVENUE', 'NOISY HORIZON']",False,RT,Paris
EN,PAR,700027370,ABBAYE DES VAUX DE CERNAY,ENPARABA,2026-04-02 23:22:41,48.68589,1.9312,FR,78720,CERNAY LA VILLE,"['DOMAINE DE L ABBAYE', 'DES VAUX DE CERNAY']",False,RT,Paris
HS,PAR,700047606,BRESIL OPERA,HSPARCGJ,2023-08-01 09:54:42,48.87238,2.34478,FR,75009,PARIS,"['23, RUE BERGERE']",False,nan,Paris
FG,PAR,700061451,HOTEL FOUGERE,FGPARFOU,2025-08-27 11:36:47,48.85504,2.33372,FR,75006,PARIS,['36 RUE BONAPARTE'],False,nan,Paris
YX,PAR,700044510,HOTEL ASCOT OPERA,YXPARH02,2025-10-27 21:53:36,48.86826,2.33523,FR,75002,PARIS,['2 RUE MONSIGNY'],False,nan,Paris
OI,PAR,700032371,HOTEL BOURG TIBOURG,OIPARBTI,2025-12-23 07:54:26,48.85722,2.35591,FR,75004,Paris,['19 RUE DU BOURG TIBOURG'],False,LK,Paris
FG,PAR,700092089,HC HOTEL KABANEL,FGPARHPR,2026-02-03 09:13:02,48.87653,2.35417,FR,75010,PARIS,"['21 RUE DE CHABROL', '10TH DISCTRICT']",False,nan,Paris
FG,PAR,700030334,HC ETOILE SAINT FERDINAND,FGPAR199,2026-02-03 16:25:41,48.87775,2.28728,FR,75017,PARIS,['36 RUE SAINT FERDINAND'],False,nan,Paris
RT,PAR,700139755,IBIS CLAMART PARIS VELIZY,RTPARC65,2026-04-01 11:45:32,48.78285,2.24439,FR,92140,CLAMART,['350 AVENUE GENERAL DE GAULLE'],False,RT,Paris
YX,PAR,700165288,HOTEL VOLNEY OPERA,YXPARCFI,2025-10-28 01:09:44,48.8698,2.33019,FR,75002,PARIS,['11 RUE VOLNEY'],False,nan,Paris
RT,PAR,700027918,NOVOTEL PARIS PONT DE SEVRES,RTPARSEV,2026-04-01 08:14:48,48.82684,2.22119,FR,92310,SEVRES,['11 GRANDE RUE'],False,RT,Paris
BD,PAR,700639394,B&B HOTEL PARIS SUD - CHATENAY MALABRY,BDPARCHM,2026-03-26 09:43:51,48.76152,2.28686,FR,92290,CHATENAY MALABRY,['53 AVENUE DE LA DIVISION LECLERC'],False,LK,Paris
AC,PAR,700054583,MONCEAU-ELYSEES,ACPAR376,2025-09-26 07:16:50,48.88004,2.3024,FR,75017,PARIS,['108 RUE DE COURCELLES'],False,nan,Paris
YX,PAR,700136597,HOTEL 85 SAINT HONORE,YXPARCCF,2025-10-28 15:44:41,48.86112,2.34364,FR,75001,PARIS,['85 RUE SAINT HONORE'],False,nan,Paris
NN,PAR,700091776,KYRIAD MEAUX,NNPARK15,2025-10-14 10:43:39,48.95656,2.90809,FR,77100,MEAUX,['32 AVENUE DE LA VICTOIRE'],False,LI,Paris
RT,PAR,700091458,IBIS ISSY LES MOULINEAUX,RTPARMOU,2026-03-28 09:00:39,48.82245,2.25732,FR,92130,ISSY LES MOULINEAUX,['213 RUE JEAN JACQUES ROUSSEAU'],False,RT,Paris
OG,PAR,700260364,OG SAINT-LAURENT,OGPARRHS,2025-11-18 10:24:07,48.7764,1.80988,FR,78490,MONTFORT L AMAURY,['2 PLACE LEBRETON'],False,TC,Paris
FG,PAR,700083099,HOTEL SAINT GERMAIN,FGPARGER,2025-09-12 07:15:31,48.85473,2.32423,FR,75007,PARIS,['88 RUE DU BAC'],False,nan,Paris
RT,PAR,700189758,ADAGIO ACCESS PARIS BASTILLE,RTPARADI,2026-03-30 09:51:56,48.84954,2.37234,FR,75012,PARIS,['11 RUE MOREAU'],False,RT,Paris
NN,PAR,700091253,CAMPANILE EVRY OUEST CORBEIL ESSONNES,NNPARC53,2026-01-16 10:35:01,48.60984,2.4538,FR,91100,CORBEIL ESSONNES,['22 AVENUE PAUL MAINTENANT'],False,LI,Paris
PH,PAR,700029304,L HOTEL DU COLLECTIONNEUR PARIS,PHPARHDC,2026-04-14 09:15:28,48.87679,2.30758,FR,75008,PARIS,['51-57 RUE DE COURCELLES'],False,PV,Paris
RT,PAR,700230313,IBIS BUDGET MARNE LA VALLEE BRY SUR MARN,RTPARBRY,2026-04-02 23:22:29,48.8334,2.53189,FR,94360,BRY SUR MARNE,['1 AVENUE DE L EUROPE'],False,RT,Paris
YX,PAR,700179472,HOTEL ECLIPSE,YXPARECL,2026-03-04 14:43:25,48.97702,1.69462,FR,78200,MAGNANVILLE,"['RUE DES PIERRETTES', 'AVENUE DE L EUROPE']",False,nan,Paris
YX,PAR,700021907,LE GENERAL HOTEL,YXPARGEN,2026-01-30 15:00:25,48.86623,2.36686,FR,75011,PARIS,['5 - 7 RUE RAMPON'],False,nan,Paris
UP,PAR,700054647,"HOTEL CAMILLE PARIS,TAPESTRY COLL HILTON",UPPARCKS,2026-04-09 08:19:56,48.84629,2.37195,FR,75012,PARIS,['5 RUE DE LYON'],False,EH,Paris
YX,PAR,700158049,HOTEL DE LA TAMISE,YXPARTAM,2025-10-28 07:27:39,48.86499,2.32957,FR,75001,PARIS,['4 RUE D ALGER'],False,nan,Paris
YX,PAR,700132817,LE MAREUIL,YXPARLEM,2026-04-11 05:23:05,48.86599,2.36747,FR,75011,PARIS,['51 RUE DE MALTE'],False,nan,Paris
RT,PAR,700183373,IBIS BUDGET PARIS PTE ITALIE EST,RTPARIEE,2026-03-28 09:32:31,48.81583,2.36373,FR,94270,KREMLIN BICETRE,"['20,RUE VOLTAIRE']",False,RT,Paris
UI,PAR,700026563,FOREST HILL PARIS MEUDON-VELIZY,UIPARFST,2026-04-08 17:24:23,48.78486,2.22522,FR,92360,MEUDON LA FORET,"['40 AVENUE MARECHAL DE LATTRE', 'DE TASSIGNY']",False,nan,Paris
OI,PAR,700495634,ALL SUITES APPART HOTEL CHOISY LE ROI,OIPARROI,2026-03-19 09:34:50,48.76239,2.41265,FR,94600,CHOISY LE ROI,['23 AVENUE LOUIS LUC'],False,LK,Paris
RT,PAR,700504917,IBIS STYLES PARIS 16 BOULOGNE,RTPARSUD,2026-02-05 00:04:00,48.83652,2.25366,FR,75016,PARIS,['19 AVENUE FERDINAND BUISSON'],False,RT,Paris
GI,PAR,700915589,HILTON GARDEN INN MASSY,GIPAR500,2026-04-14 08:19:29,48.7268,2.2634,FR,91300,MASSY,['35 AVENUE CARNOT'],False,EH,Paris
YX,PAR,700031282,HOTEL BEAUGRENELLE TOUR EIFFEL,YXPAR402,2025-11-19 16:08:00,48.85029,2.29023,FR,75015,PARIS,['19 RUE VIALA'],False,nan,Paris
YX,PAR,700051034,HOTEL WALDORF MONTPARNASSE,YXPAR016,2026-03-16 14:51:24,48.84254,2.32356,FR,75014,PARIS,['17 RUE DU DEPART'],False,nan,Paris
AZ,PAR,700032820,CITADINES TOUR EIFFEL PARIS,AZPAROEI,2026-04-01 21:49:21,48.84884,2.29781,FR,75015,PARIS,"['132, BOULEVARD DE GRENELLE']",False,nan,Paris
LW,PAR,700252103,LA RESERVE PARIS HOTEL AND SPA,LWPAR645,2026-03-31 21:15:28,48.86968,2.31334,FR,75008,PARIS,['42 AVENUE GABRIEL'],False,nan,Paris
YX,PAR,700134867,HOTEL PALYM,YXPARPAL,2026-01-20 09:06:57,48.84626,2.37345,FR,75012,PARIS,['4 RUE EMILE GILBERT'],False,nan,Paris
YX,PAR,700254528,HOTEL EKTA,YXPAREKT,2025-10-28 01:10:40,48.87131,2.29818,FR,75008,PARIS,['52 RUE GALILEE'],False,nan,Paris
RC,PAR,700053221,RESIDENCE INN DIDOT MONTPARNASSE,RCPARRNR,2026-04-12 06:28:51,48.82802,2.31527,FR,75014,PARIS,['94 RUE DIDOT'],False,EM,Paris
NN,PAR,700076339,CAMPANILE NATURE - MLV CHELLES,NNPARC46,2026-03-26 14:03:26,48.87788,2.60116,FR,77500,CHELLES,['38 AV DU GENDARME CASTERMANT'],False,LI,Paris
FG,PAR,700010452,NEW HOTEL ROBLIN LA MADELEINE,FGPARROB,2026-03-21 21:02:40,48.87134,2.32394,FR,75008,PARIS,['6 RUE CHAUVEAU LAGARDE'],False,nan,Paris
RT,PAR,700256832,HOTELF1 PARIS PORTE DE CHATILLON,RTPARFPP,2026-04-14 09:15:33,48.82277,2.31653,FR,75014,PARIS,['23 AVE DE LA PORTE DE CHATILLON'],False,RT,Paris
FG,PAR,700772115,RESIDENCE ECLA MASSY PALAISEAU,FGPARECA,2025-06-02 14:30:12,48.71928,2.2634,FR,91120,PALAISEAU,['16 AVENUE EMILE BAUDOT'],False,nan,Paris
YX,PAR,700618802,HOTEL MONTE CRISTO PARIS,YXPARMCO,2026-02-17 10:05:38,48.83788,2.34927,FR,75005,PARIS,['20-22 RUE PASCAL'],False,nan,Paris
IW,PAR,700029550,HOTEL FLORIDA,IWPARFLO,2026-04-13 12:55:22,48.8716,2.32252,FR,75008,PARIS,['12 BD MALESHERBES'],False,nan,Paris
YX,PAR,700030069,MONSIEUR CADET,YXPARMON,2025-10-31 14:39:14,48.87433,2.34248,FR,75009,PARIS,['4 RUE CADET'],False,nan,Paris
FG,PAR,700054613,HOTEL DU MINISTERE,FGPAR038,2026-03-25 11:47:21,48.87137,2.31926,FR,75008,PARIS,['31 RUE DE SURENE'],False,nan,Paris
UI,PAR,700058802,HOTEL CHAMBELLAN MORGANE,UIPAR121,2026-04-08 19:11:27,48.86969,2.2975,FR,75116,PARIS,['6 RUE KEPPLER'],False,nan,Paris
WV,PAR,700643112,HOTEL ALFRED SOMMIER,WVPAR126,2025-02-19 15:37:39,48.87201,2.32403,FR,75008,PARIS,"[""20 RUE DE L'ARCADE""]",False,TC,Paris
AC,PAR,700092029,MONGE,ACPARH74,2024-07-01 19:06:38,48.8448,2.35246,FR,75005,PARIS,['55 RUE MONGE'],False,nan,Paris
YX,PAR,700274141,HOTEL OLYMPIC PARIS BOULOGNE,YXPARCQZ,2026-02-26 15:18:21,48.83723,2.24588,FR,92100,BOULOGNE BILLANCOURT,['69 AVENUE VICTOR HUGO'],False,nan,Paris
NN,PAR,700090817,CAMPANILE PRIME - ARGENTEUIL,NNPARC20,2026-03-26 16:05:36,48.93499,2.24256,FR,95100,ARGENTEUIL,['1 RUE ARY SCHEFFER'],False,LI,Paris
WV,PAR,700004263,HOTEL ALBERT 1ER,WVPARALB,2024-12-04 13:14:31,48.87947,2.35804,FR,75010,PARIS,['162 RUE LA FAYETTE'],False,TC,Paris
RT,PAR,700031101,IBIS STYLES PARIS PLACE ITALIE,RTPARBUT,2026-03-05 00:24:26,48.8284,2.34735,FR,75013,PARIS,['22 RUE BARRAULT'],False,RT,Paris
NN,PAR,700092515,CAMPANILE SAINT-QUENTIN-EN-YVELINES,NNPARC18,2026-04-14 09:15:34,48.78292,2.04253,FR,78180,ST QUENTIN EN YVELINES,"['2 PLACE GEORGES POMPIDOU', 'REGIONAL SHOPPING CENTER']",False,LI,Paris
BD,PAR,700336194,B&B HOTEL PARIS NORD VILLEPINTE,BDPARVIL,2026-03-26 09:43:51,48.96292,2.5535,FR,93420,VILLEPINTE,['LES MOUSSEAUX SUD - RUE JEAN FOURGEAUD'],False,LK,Paris
YX,PAR,700230864,LE CINQ CODET,YXPARLCC,2026-01-22 11:59:19,48.855,2.30835,FR,75007,PARIS,['5 RUE LOUIS CODET'],False,nan,Paris
YX,PAR,700353577,SEJOURS AFFAIRES PARIS BAGNEUX,YXPARSAB,2025-10-30 07:14:11,48.79391,2.32056,FR,92220,BAGNEUX,['204 AVENUE ARISTIDE BRIAND'],False,nan,Paris
YX,PAR,700189766,HOTEL RIVIERA ELYSEES,YXPARD55,2025-10-30 14:30:21,48.87827,2.29395,FR,75017,PARIS,['55 RUE DES ACACIAS'],False,nan,Paris
YX,PAR,700092132,BELFAST HOTEL PARIS,YXPARBEL,2025-10-29 18:51:54,48.87559,2.29375,FR,75017,PARIS,['AV CARNOT 10'],False,nan,Paris
RT,PAR,700092118,IBIS PARIS GARE MONTPARNASSE 15TH HOTEL,RTPARNAS,2026-03-28 08:11:05,48.84043,2.31547,FR,75015,PARIS,['71 BOULEVARD DE VAUGIRARD'],False,RT,Paris
YX,PAR,700076367,HOTEL GUSTAVE PARIS,YXPARE74,2025-10-28 17:19:39,48.85021,2.28904,FR,75015,PARIS,['34 RUE VIALA'],False,nan,Paris
HS,PAR,700048207,PRINTANIA,HSPARBNS,2026-04-14 09:15:28,48.83402,2.29531,FR,75015,PARIS,"['55, RUE OLIVIER DE SERRES']",False,nan,Paris
YX,PAR,700544994,HOTEL DRESS CODE,YXPARHDR,2026-03-27 08:37:00,48.87053,2.32795,FR,75009,PARIS,['5 RUE DE CAUMARTIN'],False,nan,Paris
RT,PAR,701198045,TRIBE PARIS SAINT OUEN,RTPARTPS,2026-04-01 12:23:21,48.91378,2.33602,FR,93400,SAINT OUEN,['33/35 BOULEVARD JEAN JAURES'],False,RT,Paris
FG,PAR,700017587,HOTEL AUGUSTIN,FGPAR643,2025-07-15 19:49:45,48.87549,2.31829,FR,75008,PARIS,['9 RUE ROY'],False,nan,Paris
YX,PAR,700211388,RESIDHOME ISSY LES MOULINEAUX,YXPARRPM,2025-10-30 04:45:11,48.82499,2.25852,FR,92130,ISSY LES MOULINEAUX,['22 TO 24 RUE DU PASSEUR DE BOULOGNE'],False,nan,Paris
YX,PAR,700049133,LES PLUMES HOTEL,YXPARD68,2025-10-29 18:52:45,48.87663,2.3433,FR,75009,PARIS,['10 RUE LAMARTINE'],False,nan,Paris
FG,PAR,700035105,HOTEL GEORGE - ASTOTEL,FGPAR659,2025-07-16 07:31:06,48.87951,2.33635,FR,75009,PARIS,"['46, RUE NOTRE DAME DE LORETTE']",False,nan,Paris
AC,PAR,700016171,ARMONI HOTEL,ACPAR787,2024-08-27 10:30:28,48.88514,2.29304,FR,75017,PARIS,['7 VILLA BERTHIER'],False,nan,Paris
RT,PAR,700183408,IBIS BUDGET SUCY EN BRIE,RTPARSUC,2026-03-30 09:30:31,48.77381,2.49809,FR,94370,SUCY EN BRIE,"['3 RUE DES AMERIQUES', 'ZAC DU PETIT MARAIS']",False,RT,Paris
BD,PAR,700034337,B&B HOTEL ROSNY-SOUS-BOIS PARIS EST,BDPARROS,2026-03-26 09:44:15,48.87755,2.47559,FR,93110,ROSNY SOUS BOIS,['1 RUE DE LISBONNE'],False,LK,Paris
FG,PAR,700158044,HOTEL SAINT JACQUES,FGPARJAC,2025-06-02 13:58:31,48.84875,2.34762,FR,75005,PARIS,['35 RUE DES ECOLES'],False,nan,Paris
FG,PAR,700031221,HOTEL ICONE,FGPARALQ,2023-08-01 09:50:29,48.87108,2.33899,FR,75002,PARIS,"[""4, RUE D 'AMBOISE""]",False,nan,Paris
LC,PAR,700574900,"HOTEL DE BERRI CHAMPS ELYSEES, A LUXURY",LCPAR858,2026-04-12 06:11:49,48.8728,2.3055,FR,75008,PARIS,['18-22 RUE DE BERRI'],False,EM,Paris
SM,PAR,700029552,VILLA MARQUIS MELIA COLLECTION,SMPARALM,2026-03-26 12:17:29,48.8652,2.30455,FR,75008,PARIS,['35 RUE JEAN GOUJON'],False,nan,Paris
NN,PAR,700120767,PREMIERE CLASSE CHANTILLY - LUZARCHES,NNPARP18,2025-10-14 10:52:28,49.12319,2.42542,FR,95270,CHAUMONTEL,"['54 RUE DE PARIS', 'N16']",False,LI,Paris
EU,PAR,700046495,HOTEL CLEMENT,EUPAR063,2025-07-03 07:08:52,48.85254,2.33612,FR,75006,PARIS,['6 RUE CLEMENT'],False,nan,Paris
YX,PAR,700092137,HOTEL EXCELSIOR,YXPAR640,2026-01-16 15:58:31,48.88357,2.32357,FR,75017,PARIS,['16 RUE CAROLINE'],False,nan,Paris
YX,PAR,700058821,HOTEL SAINTE BEUVE,YXPAR155,2026-01-23 13:43:34,48.84394,2.32947,FR,75006,PARIS,['9 RUE SAINTE BEUVE'],False,nan,Paris
VC,PAR,700060056,MARRIOTT VAC CLUB ILE-DE-FRANC,VCPARDPV,2026-04-12 06:46:47,48.85269,2.81159,FR,77700,BAILLY ROMAINVILLIERS,['ALLEE DE L.OROME ROND'],False,EM,Paris
BD,PAR,700328494,B&B HOTEL DISNEYLAND PARIS,BDPARDIS,2026-03-26 09:43:06,48.87693,2.80911,FR,77700,MAGNY LE HUNGRE,['ZAC DES COURTALINS AVENUE DE LA FOSSE DES PRESSOIRS'],False,LK,Paris
BD,PAR,700225382,B&B HOTEL SAINT WITZ,BDPARSWI,2026-03-26 09:43:36,49.08868,2.5534,FR,95470,SAINT WITZ,['10 RUE JEAN MOULIN'],False,LK,Paris
WV,PAR,700013914,HOTEL VICTOR HUGO PARIS KLEBER,WVPAR503,2025-10-12 15:58:11,48.86904,2.28912,FR,75116,PARIS,['19 RUE COPERNIC'],False,TC,Paris
FI,PAR,700070733,FRASER SUITES LE CLARIDGE,FIPARCLA,2026-03-16 13:50:34,48.87108,2.30465,FR,75008,PARIS,['74 AVENUE DES CHAMPS ELYSEES'],False,nan,Paris
AC,PAR,700041693,DAUNOU OPERA,ACPAR383,2025-09-25 08:17:21,48.86935,2.33215,FR,75002,PARIS,"['6, RUE DAUNOU']",False,nan,Paris
WV,PAR,700141400,ZENITUDE PARIS ROISSY VILLAGE,WVPARRVR,2024-12-18 08:22:32,49.00446,2.51181,FR,95700,ROISSY EN FRANCE,['4 AVENUE DE MONTMORENCY'],False,TC,Paris
YX,PAR,700007610,HOTEL GARDEN ELYSEE,YXPARGEL,2026-02-09 11:26:21,48.86624,2.2881,FR,75116,PARIS,['12 RUE SAINT DIDIER'],False,nan,Paris
YX,PAR,700031484,LE BASILE,YXPARD69,2026-03-17 20:00:49,48.87159,2.32709,FR,75009,PARIS,['23 RUE GODOT DE MAUROY'],False,nan,Paris
AC,PAR,700140792,LE NOTRE DAME,ACPAR419,2025-09-25 08:08:17,48.85301,2.34658,FR,75005,PARIS,"['1, QUAI SAINT MICHEL']",False,nan,Paris
UI,PAR,700012904,SPLENDID ETOILE HOTEL,UIPARSPI,2026-04-08 18:56:04,48.87488,2.29367,FR,75017,PARIS,['1 AVENUE CARNOT'],False,nan,Paris
CI,PAR,700044988,COMFORT HOTEL PARIS PORTE DIVRY,CIPAR532,2026-02-24 09:44:54,48.81983,2.37602,FR,94200,PARIS,"['1-11 RUE RENE VILLARS', 'IVRY SUR SEINE']",False,EC,Paris
BW,PAR,700057369,BW NOUVEL ORLEANS MONTPARNASSE,BWPAR544,2025-12-30 11:00:18,48.83101,2.32992,FR,75014,PARIS,['25 AVENUE DU GENERAL LECLERC'],False,EW,Paris
NN,PAR,700091150,KYRIAD CHANTILLY,NNPARK22,2026-04-14 09:15:37,49.20426,2.46125,FR,60500,CHANTILLY,['RN16 - ZA DU COQ CHANTANT'],False,LI,Paris
RT,PAR,701255713,MERCURE ACHERES,RTPARMCP,2026-03-28 13:11:15,48.97232,2.08034,FR,78260,ACHERES,['2 AVENUE JACQUES CHIRAC'],False,RT,Paris
WV,PAR,700574229,BRACH PARIS - EVOK COLLECTION,WVPAR182,2025-05-31 06:55:19,48.86127,2.27544,FR,75016,PARIS,['1-7 RUE JEAN RICHEPIN'],False,TC,Paris
EU,PAR,700045689,HOTEL LE ROYAL RIVE GAUCHE,EUPARROM,2025-07-15 08:28:30,48.84098,2.32966,FR,75014,PARIS,['212 BOULEVARD RASPAIL'],False,nan,Paris
AC,PAR,700006505,DAUPHINE SAINT GERMAIN,ACPARC94,2025-01-14 15:18:04,48.85446,2.33901,FR,75006,PARIS,"['36, RUE DAUPHINE']",False,nan,Paris
HS,PAR,700225364,PIERRE NICOLE,HSPARCFW,2023-08-01 10:49:15,48.83979,2.33887,FR,75005,PARIS,"['39, RUE PIERRE NICOLE']",False,nan,Paris
YX,PAR,700035192,HOTEL TRIANON GARE DE LYON,YXPARTRI,2026-03-27 08:41:58,48.8465,2.37944,FR,75012,PARIS,['52 BOULEVARD DIDEROT'],False,nan,Paris
NN,PAR,700140480,PREMIERE CLASSE SAINT BRICE SOUS FORET,NNPARP45,2025-10-14 14:31:58,48.99176,2.36242,FR,95350,SAINT BRICE SOUS FORET,['RUE DU CHAMP GALLOIS'],False,LI,Paris
YX,PAR,700011819,LE QUARTIER BERCY SQUARE,YXPARREU,2026-01-30 15:00:34,48.83947,2.39272,FR,75012,PARIS,['33 BOULEVARD DE REUILLY'],False,nan,Paris
FG,PAR,700054612,HOTEL OPERA MARIGNY,FGPAROPE,2025-09-16 07:11:10,48.87173,2.32351,FR,75008,PARIS,['15 RUE DE L ARCADE'],False,nan,Paris
AC,PAR,700030525,VILLA BOHEME,ACPARJ21,2024-06-04 11:46:01,48.88016,2.33422,FR,75009,PARIS,['2 BIS CITE PIGALLE'],False,nan,Paris
RT,PAR,700058366,IBIS STYLES PARIS MAIRIE DE CLICHY,RTPARCHY,2026-03-28 09:50:18,48.90305,2.30526,FR,92110,CLICHY,['14 RUE DAGOBERT'],False,RT,Paris
YX,PAR,700732063,LE DAMANTIN,YXPARDAM,2026-01-15 10:23:22,48.86506,2.30769,FR,75008,PARIS,['1 RUE BAYARD'],False,nan,Paris
BD,PAR,700061715,B&B HOME PARIS NORD 18EME,BDPAR18E,2026-03-26 09:44:42,48.9018,2.35957,FR,75018,Paris,['1 IMPASSE MARTEAU'],False,LK,Paris
BD,PAR,700504682,B&B HOTEL PARIS EST BOBIGNY,BDPARBNY,2026-03-26 09:43:47,48.91554,2.41715,FR,93000,BOBIGNY,['6 RUE RENE GOSCINNY'],False,LK,Paris
AC,PAR,700056602,HOTEL ALIZE GRENELLE TOUR EIFEL,ACPARH21,2025-11-11 08:16:11,48.84675,2.28777,FR,75015,PARIS,['87 AVENUE EMILE ZOLA'],False,nan,Paris
YX,PAR,700020660,LE RELAIS MONCEAU,YXPAR4N6,2026-01-30 15:00:41,48.88035,2.31727,FR,75008,PARIS,['85 RUE DE ROCHER'],False,nan,Paris
NN,PAR,700135824,PREMIERE CLASSE PARIS-NANTERRE,NNPARP05,2025-10-14 14:29:00,48.91896,2.22064,FR,92000,NANTERRE,['16 RUE DU HARAS'],False,LI,Paris
UI,PAR,700009127,HOTEL BELLEVAL,UIPARLBL,2026-04-08 17:08:45,48.87518,2.32209,FR,75008,PARIS,['16 RUE DE LA PEPINIERE'],False,nan,Paris
NN,PAR,700140491,PREMIERE CLASSE VILLENEUVE SAINT GEORGES,NNPARP51,2025-10-14 10:28:03,48.7612,2.44572,FR,94190,VILLENEUVE-ST-GEORGES,"['17 RUE LOUIS ARMAND', 'Z.A DES PRES DE L H OPITAL (RN6)']",False,LI,Paris
NN,PAR,700139756,CAMPANILE PLAISIR ST QUENTIN EN YVELINES,NNPARC68,2024-11-26 08:01:38,48.79945,1.95611,FR,78370,PLAISIR,"['ZAC DE SAINTE APOLLINE', '177 RUE DES POIRIERS']",False,LI,Paris
RT,PAR,700183370,IBIS BUDGET PARIS PORTE DE PANTIN,RTPARPPP,2026-03-30 09:33:05,48.89683,2.4037,FR,93500,PANTIN,['96/98 AVENUE DU GENERAL LECLERC'],False,RT,Paris
BD,PAR,701046053,B&B HOTEL PARIS MEUDON VELIZY,BDPARMEU,2026-03-26 09:43:53,48.7931,2.2176,FR,92360,MEUDON,['9 ROUTE DU CORONEL MARCEL MORAINE'],False,LK,Paris
YX,PAR,700004622,HOTEL MARAIS HOME,YXPAR812,2025-12-15 13:24:24,48.86548,2.3657,FR,75011,PARIS,['38 BLVD DU TEMPLE'],False,nan,Paris
YX,PAR,700029518,YLLEN EIFFEL HOTEL,YXPARYEL,2025-10-28 08:49:39,48.8415,2.30771,FR,75015,PARIS,['196 RUE DE VAUGIRARD'],False,nan,Paris
YX,PAR,700025209,LE MARQUIS BY INWOOD,YXPARMEL,2026-01-30 14:42:26,48.85162,2.29789,FR,75015,PARIS,['15 RUE DUPLEIX'],False,nan,Paris
RT,PAR,700243038,IBIS STYLES SAINT-QUENTIN,RTPARSTQ,2026-04-01 12:51:35,49.85442,3.26579,FR,02100,SAINT QUENTIN,"['AVENUE ARCHIMEDE', 'ZA DU BOIS DE LA CHOCQUE']",False,RT,Paris
AC,PAR,700091666,ESPACE CHAMPERRET,ACPARK30,2025-10-29 11:08:44,48.88861,2.28745,FR,92300,PARIS,['26 RUE LOUISE MICHEL'],False,nan,Paris
RT,PAR,700060515,NOVOTEL CHATEAU DE MAFFLIERS,RTPARMFL,2026-04-14 09:15:36,49.07456,2.30439,FR,95560,MAFFLIERS,['ALLEE DES MARRONIERS'],False,RT,Paris
UI,PAR,700092017,HOTEL HANDSOME,UIPARHAN,2026-04-08 17:27:40,48.86207,2.34873,FR,75001,PARIS,"['83, RUE RAMBUTEAU']",False,nan,Paris
AC,PAR,700030150,HOTEL CENTRAL SAINT GERMAIN,ACPARD41,2025-09-19 08:01:51,48.84982,2.34303,FR,75005,PARIS,['3 RUE CHAMPOLLION'],False,nan,Paris
YX,PAR,700054626,HOTEL VERYSTE,YXPARGHP,2025-10-30 15:54:42,48.87627,2.34642,FR,75009,PARIS,['5 RUE RIBOUTTE'],False,nan,Paris
AC,PAR,700057503,7 EIFFEL BY MALONE,ACPARN13,2025-01-25 08:58:32,48.85839,2.30776,FR,75007,PARIS,['17 BIS RUE AMELIE'],False,nan,Paris
AC,PAR,700046497,HOTEL ALBE SAINT MICHEL,ACPARD48,2025-06-18 14:44:00,48.85313,2.34469,FR,75005,PARIS,['1 RUE DE LA HARPE'],False,nan,Paris
WV,PAR,700092108,TIMHOTEL TOUR MONTPARNASSE,WVPARA50,2026-03-27 08:46:52,48.8403,2.32409,FR,75014,PARIS,['11 BIS RUE DE LA GAITE'],False,TC,Paris
UI,PAR,700007096,ELYSEES UNION HOTEL,UIPAR002,2026-04-08 17:52:13,48.86839,2.29177,FR,75116,PARIS,['44 RUE DE L AMIRAL HAMELIN'],False,nan,Paris
FG,PAR,700021908,HOTEL REGENCE ETOILE-PARIS ETOILE,FGPARAAR,2024-11-04 13:50:17,48.87657,2.29292,FR,75017,PARIS,['AVENUE CARNOT 24'],False,nan,Paris
AC,PAR,700091874,BRIT HOTEL BAILLET EN FRANCE,ACPARQ98,2026-03-21 21:06:30,49.06302,2.32482,FR,95560,BAILLET EN FRANCE,['9 AVENUE DU BOSQUET'],False,nan,Paris
AC,PAR,700074682,BRIT HOTEL CODALYSA MARNE LA VALLEE,ACPARO99,2025-01-17 09:08:18,48.84163,2.6558,FR,77200,TORCY,"['2, RUE CHARLIE CHAPLIN']",False,nan,Paris
FG,PAR,700849995,HOTEL BIJOU,FGPARBIJ,2025-12-18 14:40:49,48.83136,2.24209,FR,92012,BOULOGNE BILLANCOURT,['15 RUE VICTOR GRIFFUELHES'],False,nan,Paris
YX,PAR,700158010,ELYSEES HOTEL,YXPARESH,2026-03-07 02:27:32,48.87204,2.30865,FR,75008,PARIS,['100 RUE LA BOETIE'],False,nan,Paris
FG,PAR,700030838,HC HOTEL DE NEUVE,FGPAR647,2026-02-03 09:13:05,48.85392,2.36317,FR,75004,PARIS,['14 RUE NEUVE SAINT PIERRE'],False,nan,Paris
RT,PAR,700092102,IBIS PARIS AVENUE D'ITALIE,RTPARITA,2026-04-01 09:25:51,48.82927,2.35662,FR,75013,PARIS,"['15 BIS AVENUE D""ITALIE']",False,RT,Paris
FG,PAR,700005501,HOTEL BRADFORD ELYSEES,FGPAR351,2025-01-20 09:55:08,48.87288,2.30817,FR,75008,PARIS,['10 RUE ST PHILIPPE DE ROULE'],False,nan,Paris
FG,PAR,700255945,HOTEL JOKE - ASTOTEL,FGPARJOK,2025-07-16 07:31:17,48.88245,2.33182,FR,75009,PARIS,['69 RUE BLANCHE'],False,nan,Paris
YX,PAR,700144353,PANAM HOTEL,YXPARPNH,2026-03-17 15:40:57,48.8654,2.39826,FR,75020,PARIS,['208 RUE DES PYRENEES'],False,nan,Paris
YX,PAR,700026947,HOTEL HELIOS OPERA,YXPARHOH,2025-12-15 13:27:22,48.87519,2.33276,FR,75009,PARIS,['75 RUE DE LA VICTOIRE'],False,nan,Paris
MO,PAR,700148340,MANDARIN ORIENTAL PARIS,MOPARMOP,2026-02-11 03:12:03,48.86701,2.32713,FR,75001,PARIS,['251 RUE SAINT-HONORE'],False,nan,Paris
NN,PAR,700057373,KYRIAD PARIS EST - BOIS DE VINCENNES,NNPAR568,2026-04-14 09:15:30,48.81801,2.42207,FR,94410,SAINT MAURICE,['12 RUE DU MARECHAL LECLERC'],False,LI,Paris
RT,PAR,700060186,MERCURE PARIS SUD PARC DU COUDRAY HOTEL,RTPARCOU,2026-03-30 06:50:41,48.55604,2.48259,FR,91830,LE COUDRAY MONTCEAUX,['ROUTE DE MILLY'],False,RT,Paris
YX,PAR,700009319,HOTEL MAXIM OPERA,YXPARHMO,2025-10-29 09:26:48,48.87384,2.34442,FR,75009,PARIS,['13 RUE GEOFFROY MARIE'],False,nan,Paris
OI,PAR,700027584,HOTEL NUAGE,OIPARMER,2025-04-20 09:25:27,48.87154,2.31214,FR,75008,Paris,['30 RUE JEAN MERMOZ'],False,LK,Paris
FG,PAR,701249341,WESTOTEL TAVERNY PARIS VAL D'OISE,FGPARWTA,2025-08-21 09:05:31,49.02642,2.19898,FR,95150,TAVERNY,['1 RUE MARIE SKLODOWSKA-CURIE'],False,nan,Paris
AC,PAR,538092552,ZENAO LE RAINCY THIERS,ACPARR62,2026-02-05 08:25:50,48.8994,2.5182,FR,93340,LE RAINCY,['43 AVENUE THIERS'],False,nan,Paris
RT,PAR,700092536,IBIS PARIS PONT DE SURESNES,RTPARBOU,2026-03-30 06:40:37,48.86839,2.22717,FR,92150,SURESNES,['6 RUE DES BOURETS'],False,RT,Paris
FG,PAR,701331274,HOTEL DANTAN,FGPARDAN,2026-01-13 09:09:14,48.83218,2.24897,FR,92100,BOULOGNE BILLANCOURT,['53 RUE DU DOME'],False,nan,Paris
RT,PAR,700055930,ADAGIO PARIS TOUR EIFFEL,RTPARADG,2026-04-14 09:15:29,48.84972,2.28541,FR,75015,PARIS,['14 RUE DU THEATRE'],False,RT,Paris
RT,PAR,700074724,IBIS BUDGET PARIS PORTE DE BAGNOLET,RTPARGNO,2026-03-28 09:25:56,48.86648,2.41644,FR,93170,BAGNOLET,['3 RUE JEAN JAURES'],False,RT,Paris
UI,PAR,700061053,HOTEL MAISON FL,UIPARPAS,2026-04-08 17:29:26,48.85884,2.28401,FR,75016,PARIS,['6 RUE DE LA TOUR'],False,nan,Paris
BW,PAR,700060231,BEST WESTERN PLUS OPERA BATIGNOLLES,BWPAR731,2026-03-06 10:00:26,48.88711,2.31439,FR,75017,PARIS,['165 RUE DE ROME'],False,EW,Paris
RT,PAR,700131450,IBIS BUDGET PARIS PORTE DE MONTMARTRE,RTPARMPN,2026-03-28 09:26:38,48.90116,2.33412,FR,75018,PARIS,['45 RUE DU DOCTEUR BABINSKI'],False,RT,Paris
YX,PAR,700079460,APPART'CITY PARIS LA VILLETTE,YXPARAPC,2025-10-29 13:52:50,48.88718,2.38633,FR,75019,PARIS,['157 AVENUE JEAN JAURES'],False,nan,Paris
NN,PAR,700091959,CAMPANILE NOGENT SUR MARNE,NNPARC25,2026-04-14 09:15:15,48.83232,2.49372,FR,94130,NOGENT SUR MARNE,['13 QUAI DU PORT'],False,LI,Paris
RT,PAR,700030837,GREET HOTEL BOULOGNE,RTPARF67,2026-03-28 11:52:14,48.83211,2.24433,FR,92100,BOULOGNE BILLANCOURT,['210 BIS BOULEVARD JEAN JAURES'],False,RT,Paris
YX,PAR,700318628,SAINT ANDRE DES ARTS,YXPARCUW,2025-10-29 11:50:45,48.85365,2.33895,FR,75006,PARIS,"['66, RUE SAINT ANDRE DES ARTS']",False,nan,Paris
YX,PAR,700076372,HOTEL ATELIER VAVIN,YXPARCUG,2025-10-30 14:28:08,48.8426,2.32873,FR,75006,PARIS,['49 RUE VAVIN'],False,nan,Paris
UI,PAR,700235905,FIVE BOUTIQUE HOTEL,UIPARFIV,2026-04-08 17:52:24,48.83784,2.33866,FR,75005,PARIS,"['3, RUE FLATTERS']",False,nan,Paris
RT,PAR,701234407,NOVOTEL PARIS VAL DE FONTENAY,RTPARVDF,2026-03-28 12:22:59,48.85343,2.48738,FR,94120,FONTENAY SOUS BOIS,['2 AVENUE VAL DE FONTENAY'],False,RT,Paris
AC,PAR,700030083,HOTEL PRINCE MONCEAU,ACPAR570,2025-07-15 07:52:00,48.88682,2.31375,FR,75017,PARIS,['9 RUE TARBE'],False,nan,Paris
FG,PAR,701163914,QUINZERIE,FGPARQUI,2024-06-25 06:55:05,48.84418,2.28087,FR,75015,PARIS,['40 RUE DE LA CONVENTION'],False,nan,Paris
YX,PAR,700144855,HOTEL PARADIS PARIS,YXPARSOF,2026-03-27 10:53:56,48.87378,2.34994,FR,75010,PARIS,['41 RUE DES PETITES ECURIES'],False,nan,Paris
WV,PAR,700027006,HOTEL CHATEAUBRIAND,WVPARWCH,2023-08-01 09:50:10,48.8733,2.30254,FR,75008,PARIS,"['6, RUE CHATEAUBRIAND']",False,TC,Paris
YX,PAR,700029516,HOTEL LOUVRE MONTANA,YXPAR190,2025-12-15 13:22:31,48.86445,2.33176,FR,75001,PARIS,['12 RUE SAINT ROCH'],False,nan,Paris
YX,PAR,700026294,HOTEL MONTHOLON OPERA,YXPARH87,2025-12-04 10:36:31,48.87656,2.3471,FR,75009,PARIS,['15 RUE MONTHOLON'],False,nan,Paris
YX,PAR,700255823,RESIDHOME NANTERRE LA DEFENSE,YXPARDEF,2025-10-30 07:03:10,48.90162,2.21809,FR,92000,NANTERRE,['521 BOULEVARD DES PROVINCES FRANCAISES'],False,nan,Paris
AC,PAR,700031241,CLUNY SQUARE,ACPARK37,2024-10-30 15:42:09,48.85154,2.34347,FR,75005,PARIS,['21 BOULEVARD SAINT MICHEL'],False,nan,Paris
AC,PAR,700194570,BORONALI,ACPARQ46,2025-05-23 07:02:45,48.88867,2.34796,FR,75018,PARIS,['65 RUE DE CLIGNANCOURT'],False,nan,Paris
AC,PAR,700042962,LE GLAM S HOTEL PARIS,ACPARR42,2026-02-05 08:25:07,48.82451,2.32721,FR,75014,PARIS,['47 RUE BEAUNIER'],False,nan,Paris
YX,PAR,700007721,ROYAL GARDEN HOTEL PARIS,YXPARHTG,2026-01-13 12:27:01,48.87565,2.30383,FR,75008,PARIS,['218 - 220 RUE DU FAUBOURG SAINT HONORE'],False,nan,Paris
AC,PAR,700054610,SAINT PIERRE,ACPARH65,2024-06-03 09:26:56,48.85067,2.34197,FR,75006,PARIS,"[""4 RUE DE L'ECOLE DE MEDECINE""]",False,nan,Paris
AC,PAR,700004285,ATELIER MONTPARNASSE,ACPAR245,2025-11-22 08:21:45,48.83336,2.31694,FR,75014,PARIS,['84  RUE RAYMOND LOSSERAND'],False,nan,Paris
AC,PAR,700027585,ELYSEES 8,ACPARG08,2026-04-14 09:15:33,48.87304,2.31795,FR,75008,PARIS,"['16, RUE CAMBACERES']",False,nan,Paris
AC,PAR,700031468,GRAND HOTEL FRANCAIS,ACPARQ63,2026-02-20 12:55:32,48.85163,2.39079,FR,75011,PARIS,['223 BOULEVARD VOLTAIRE'],False,nan,Paris
YX,PAR,700006913,JOE M,YXPARDUC,2025-10-30 14:59:48,48.87338,2.34381,FR,75009,PARIS,['6 RUE GEOFFROY MARIE'],False,nan,Paris
RT,PAR,700091155,MERCURE CHARTRES EST,RTPARMCE,2026-04-03 23:20:23,48.44628,1.53835,FR,28000,CHARTRES,['24 AVENUE GUSTAVE EIFFEL'],False,RT,Paris
YX,PAR,700898099,RESIDHOME SAINT OUEN,YXPARRES,2026-02-09 10:19:13,48.91004,2.3266,FR,93400,SAINT OUEN,['33 RUE ARDOIN'],False,nan,Paris
YX,PAR,700127562,HOTEL GEORGETTE,YXPARGTT,2025-12-12 15:21:04,48.86324,2.35268,FR,75003,PARIS,['36 RUE DU GRENIER SAINT LAZARE'],False,nan,Paris
YX,PAR,700092100,HOTEL TERMINUS LYON,YXPARHTY,2025-10-29 11:52:49,48.84576,2.37177,FR,75012,PARIS,['19 BOULEVARD DIDEROT'],False,nan,Paris
RT,PAR,700177286,IBIS BUDGET CERGY ST CHRISTOPHE,RTPARIBC,2026-03-30 09:35:10,49.05588,2.03782,FR,95800,CERGY,"['1 ALLEE DU PROMENOIR', 'RUE DU PETIT ALBI']",False,RT,Paris
NN,PAR,700139620,KYRIAD DIRECT ARPAJON,NNPARKD3,2026-02-03 09:59:28,48.58854,2.24569,FR,91290,ARPAJON,['23 BOULEVARD JEAN JAURES'],False,LI,Paris
RT,PAR,700672859,IBIS STYLES PARIS METEOR,RTPARLIE,2026-04-02 23:22:37,48.81701,2.3594,FR,75013,PARIS,"[""12 AVENUE DE LA PORTE D'ITALIE""]",False,RT,Paris
UI,PAR,700083435,HIDDEN HOTEL,UIPARB94,2026-04-08 19:10:08,48.87754,2.29348,FR,75017,PARIS,"[""28 RUE DE L'ARC DE TRIOMPHE""]",False,nan,Paris
NN,PAR,700118716,CAMPANILE PRIME - BARBANNIERS,NNPARC31,2026-04-09 10:30:21,48.93467,2.30349,FR,92230,GENNEVILLIERS,"['1 AV MARCEL PAUL', ""PARC D'ACTIVITES BARBANNIERS""]",False,LI,Paris
HO,PAR,701284075,NUMA PARIS CHAMPS ELYSEES,HOPARNPC,2026-03-20 14:02:25,48.86964,2.30524,FR,75008,PARIS,['37 RUE MARBEUF'],False,nan,Paris
AC,PAR,700054644,LALA HOTEL,ACPARQ84,2025-11-06 17:01:16,48.88344,2.32511,FR,75017,PARIS,['3 RUE DARCET'],False,nan,Paris
AZ,PAR,700020508,CITADINES REPUBLIQUE PARIS,AZPAR302,2026-04-14 09:15:29,48.86455,2.37489,FR,75011,PARIS,['75 BIS AVENUE PARMENTIER'],False,nan,Paris
UI,PAR,700026291,LA DEMEURE MONTAIGNE,UIPARFDR,2026-04-08 19:12:57,48.8678,2.30321,FR,75008,PARIS,['18 RUE CLEMENT-MAROT'],False,nan,Paris
YX,PAR,700045908,LE PARISIS,YXPARGRX,2026-01-30 15:00:28,48.84956,2.29556,FR,75015,PARIS,['102 BOULEVARD DE GRENELLE'],False,nan,Paris
YX,PAR,700027615,HOTEL BEIGE,YXPARBEI,2026-03-30 10:00:52,48.87665,2.3418,FR,75009,PARIS,['12 RUE MAUBEUGE'],False,nan,Paris
AC,PAR,700058525,DAUMESNIL VINCENNES,ACPARG16,2025-08-18 15:48:59,48.84529,2.4325,FR,94300,VINCENNES,['50 AVENUE DE PARIS'],False,nan,Paris
FG,PAR,700092725,HOTEL LUXEMBOURG PARC,FGPARLUX,2023-08-01 09:56:17,48.84919,2.33463,FR,75006,PARIS,['42 RUE DE VAUGIRARD'],False,nan,Paris
YX,PAR,700041083,POUSSIN HOTEL,YXPARPHO,2025-10-28 20:20:40,48.84859,2.26125,FR,75016,PARIS,['52 RUE POUSSIN'],False,nan,Paris
OX,PAR,700005673,MOXY PARIS BASTILLE,OXPAROBX,2026-04-12 05:15:31,48.85754,2.36998,FR,75011,PARIS,['34/36 RUE SAINT SABIN'],False,EM,Paris
NN,PAR,700091034,CAMPANILE VERSAILLES - BUC,NNPARC57,2026-02-06 07:21:38,48.76039,2.12139,FR,78530,BUC,"['ZAC DU PRE CLOS', 'RUE CLEMENT ADER']",False,LI,Paris
FG,PAR,700512470,ART HOTEL,FGPARART,2025-08-07 11:20:41,48.89342,2.39818,FR,93700,PANTIN,['25 RUE SCANDICCI PANTIN'],False,nan,Paris
RT,PAR,700083437,ADAGIO ACCESS PARIS VILLETTE,RTPARADV,2026-02-04 21:49:15,48.89649,2.38475,FR,75019,PARIS,['28 BIS AVENUE CORENTIN CARIOU'],False,RT,Paris
RT,PAR,700008575,IBIS PARIS MONTMARTRE,RTPARMTT,2026-04-01 07:11:25,48.88532,2.33019,FR,75018,PARIS,['5 RUE CAULAINCOURT'],False,RT,Paris
FG,PAR,700017919,9HOTEL BASTILLE LYON,FGPAR473,2026-03-13 15:55:20,48.84744,2.3715,FR,75012,PARIS,['23 RUE DE LYON'],False,nan,Paris
YX,PAR,700158056,HOTEL GINETTE A LA FOLIE,YXPARGIN,2026-04-14 09:15:30,48.86583,2.36744,FR,75011,PARIS,['49 RUE DE MALTE'],False,nan,Paris
RT,PAR,700324283,IBIS BUDGET PARIS COEUR D ORLY AIRPORT,RTPARAER,2026-04-02 23:22:31,48.73152,2.37203,FR,94310,ORLY,['1 AVENUE DE L UNION'],False,RT,Paris
RT,PAR,700060581,NOVOTEL PARIS SURESNES LONGCHAMP,RTPARSUR,2026-04-10 23:21:48,48.87028,2.22982,FR,92150,SURESNES,['7 RUE DU PORT AUX VINS'],False,RT,Paris
FG,PAR,700092101,HOTEL AMIRAL,FGPARAMI,2024-04-19 14:22:35,48.82532,2.35725,FR,75013,PARIS,['98 AVENUE D ITALIE'],False,nan,Paris
YX,PAR,700092019,MAISON ARMANCE,YXPARMAH,2025-10-28 06:18:40,48.86664,2.32534,FR,75001,PARIS,['5 RUE CAMBON'],False,nan,Paris
YX,PAR,700092115,HOTEL CARLADEZ CAMBRONNE,YXPARHAC,2026-01-16 15:57:18,48.84209,2.30297,FR,75015,PARIS,['3 PLACE DU GENERAL BEURET'],False,nan,Paris
RT,PAR,520903911,HOTEL VERSAILLES SAINT QUENTIN,RTPARC71,2026-03-30 11:45:34,48.75817,2.05625,FR,78960,VOISINS LE BRETONNEUX,['7-9 RUE DES TILLEULS'],False,RT,Paris
IW,PAR,700072172,HOTEL ELYSEE SECRET,IWPAR737,2026-03-09 10:37:21,48.87013,2.31114,FR,75001,PARIS,['5 RUE DE PONTHIEU'],False,nan,Paris
AC,PAR,700144109,JACK S HOTEL,ACPARG18,2025-08-18 15:48:57,48.83294,2.35934,FR,75013,PARIS,['19 AVENUE STEPHEN PICHON'],False,nan,Paris
NN,PAR,700092197,CAMPANILE NATURE - CERGY PONTOISE,NNPARC51,2026-03-26 16:19:06,49.04298,2.08257,FR,95300,PONTOISE,['8 RUE PIERRE DE COUBERTIN'],False,LI,Paris
FG,PAR,700041978,ACACIAS ETOILE,FGPARACA,2026-01-10 14:18:53,48.8766,2.29075,FR,75017,PARIS,['11 RUE DES ACACIAS'],False,nan,Paris
YX,PAR,700042437,LE MARCEAU BASTILLE,YXPARLMB,2025-10-29 11:55:47,48.84898,2.3698,FR,75012,PARIS,['13 RUE JULES CESAR'],False,nan,Paris
RT,PAR,700230312,IBIS BUDGET COURBEVOIE PARIS LA DEFENSE,RTPARCBV,2026-04-02 23:22:30,48.89557,2.26174,FR,92400,COURBEVOIE,['37 QUAI DU PRESIDENT PAUL DOUMER'],False,RT,Paris
BD,PAR,700351333,B&B HOTEL PARIS ROMAINVILLE NOISY LE SEC,BDPARROM,2026-04-14 09:15:29,48.89242,2.44166,FR,93130,NOISY LE SEC,['220 AVENUE GASTON ROUSSEL'],False,LK,Paris
OG,PAR,700020662,OG DU VIEUX SAULE LE MARAIS,OGPAR387,2025-11-14 15:19:17,48.86328,2.3622,FR,75003,PARIS,['6 RUE DE PICARDIE'],False,TC,Paris
PU,PAR,700028589,PULLMAN PARIS TOUR EIFFEL,PUPARTOU,2026-04-01 10:16:04,48.8556,2.2928,FR,75015,PARIS,"['18 AVENUE DE SUFFREN', 'ENTREE AU 22 RUE JEAN REY']",False,RT,Paris
RT,PAR,700233231,IBIS BUDGET VITRY SUR SEINE N7,RTPARIBU,2026-03-18 00:16:48,48.77872,2.37582,FR,94400,VITRY SUR SEINE,"['160, RUE JULIAN-GRIMAU']",False,RT,Paris
RT,PAR,700092083,IBIS STYLES PARIS REPUBLIQUE LE MARAIS,RTPARREP,2026-04-02 23:22:24,48.86914,2.3641,FR,75010,PARIS,['9 RUE LEON JOUHAUX'],False,RT,Paris
RT,PAR,700524927,IBIS STYLES CLAMART GARE,RTPARCLG,2026-03-30 10:19:57,48.81456,2.27416,FR,92140,CLAMART,['11 BIS RUE DU CLOS MONTHOLON'],False,RT,Paris
RT,PAR,700571382,MERCURE PONT DE LEVALLOIS,RTPAROIS,2026-03-30 10:25:00,48.89404,2.27854,FR,92300,LEVALLOIS,['19 RUE PAUL VAILLANT COUTURIER'],False,RT,Paris
RT,PAR,700047104,IBIS GARE DE LYON LEDRU ROLLIN 12TH,RTPARLYN,2026-04-01 08:13:08,48.84786,2.37089,FR,75012,PARIS,['41-43 AVENUE LEDRU ROLLIN'],False,RT,Paris
FG,PAR,700910291,LE GRAND QUARTIER,FGPARGRA,2026-03-20 17:20:05,48.87231,2.35847,FR,75010,PARIS,['15 RUE DE NANCY'],False,nan,Paris
AC,PAR,700010912,PARIS BRUXELLES,ACPARM89,2024-03-28 15:56:13,48.86735,2.36242,FR,75003,PARIS,['4 RUE MESLAY'],False,nan,Paris
EN,PAR,701138438,SO PARIS,ENPARSPA,2026-04-02 23:22:36,48.85,2.36244,FR,75004,PARIS,['10 RUE AGRIPPA D AUBIGNE'],False,RT,Paris
YX,PAR,700116916,RESIDHOME PARIS EVRY,YXPARIFE,2025-10-30 11:52:14,48.62506,2.42675,FR,91000,EVRY,['1 RUE AMBROISE CROIZAT'],False,nan,Paris
YX,PAR,700031100,HOTEL SACHA,YXPAR232,2026-02-19 16:45:38,48.87951,2.33921,FR,75009,PARIS,['7 RUE DE NAVARIN'],False,nan,Paris
YX,PAR,700092061,HOTEL DE VARENNE,YXPARJ6H,2026-02-23 12:26:08,48.857,2.31723,FR,75007,PARIS,['44 RUE DE BOURGOGNE'],False,nan,Paris
BD,PAR,700439706,B&B HOTEL LOUVECIENNES,BDPARLOU,2026-03-26 09:43:30,48.87465,2.13028,FR,78430,LOUVECIENNES,"['25, CHEMIN DU PRUNAY RN 13']",False,LK,Paris
WV,PAR,700169555,RESIDENCE AURMAT,WVPARCFL,2025-02-24 13:14:16,48.84124,2.24,FR,92100,BOULOGNE BILLANCOURT,['RUE DE PARIS 106'],False,TC,Paris
BD,PAR,700544428,B&B HOTEL NANTERRE RUEIL MALMAISON,BDPARNAT,2026-03-26 09:43:48,48.89273,2.18407,FR,92000,NANTERRE,['170 AVENUE DU PARC DE L ILE'],False,LK,Paris
BD,PAR,700219505,B&B HOTEL PARIS ST DENIS PLEYEL,BDPARPLE,2026-03-26 09:43:41,48.92195,2.34334,FR,93200,SAINT DENIS,['36 BOULEVARD DE LA LIBERATION'],False,LK,Paris
YX,PAR,700174461,HOTEL LE CLERY,YXPARHLC,2026-03-17 17:13:22,48.86999,2.35042,FR,75002,PARIS,['13 BOULEVARD BONNE NOUVEL'],False,nan,Paris
NN,PAR,700052300,CAMPANILE PRIME - MARNE-LA-VALLE - TORCY,NNPARC26,2026-04-09 10:27:49,48.83456,2.66067,FR,77200,TORCY,['34 RUE DU GENERAL DE GAULE'],False,LI,Paris
YX,PAR,700141697,RELAIS SPA PARIS VAL D EUROPE,YXPARRSC,2025-03-25 13:30:56,48.85737,2.77303,FR,77700,CHESSY,['1 RUE DES GRANDS PRES'],False,nan,Paris
NN,PAR,700139218,PREMIERE CLASSE MEAUX-NANTEUIL LES MEAUX,NNPARP34,2025-10-14 14:25:19,48.93469,2.88037,FR,77100,NANTEUIL-LES-MEAUX,"['21 AVENUE DE LA FOULEE', 'ZA DE NANTEUIL']",False,LI,Paris
EN,PAR,700189762,MAISON DELANO,ENPARMDP,2026-04-02 23:22:39,48.86949,2.32065,FR,75008,PARIS,['4 RUE D ANJOU'],False,RT,Paris
YX,PAR,700031123,HOTEL OPERA LAFAYETTE,YXPAR446,2026-04-14 09:15:38,48.87632,2.34602,FR,75009,PARIS,['80 RUE LA FAYETTE'],False,nan,Paris
FG,PAR,700092138,IMPERIAL RENNEQUIN,FGPARREN,2025-08-07 11:19:14,48.88203,2.29768,FR,75017,PARIS,['34 RUE RENNEQUIN'],False,nan,Paris
AC,PAR,700092064,HOTEL DE L EMPEREUR BY MALONE,ACPAR147,2026-04-14 09:15:28,48.85636,2.30955,FR,75007,PARIS,['2 RUE CHEVERT'],False,nan,Paris
FG,PAR,700026289,HOTEL WYLD SAINT GERMAIN,FGPARSAG,2026-04-14 09:15:32,48.84869,2.34785,FR,75005,PARIS,['33 RUE DES ECOLES'],False,nan,Paris
RT,PAR,700024484,IBIS PARIS BAGNOLET,RTPARBGN,2026-03-30 06:37:54,48.86654,2.41685,FR,93170,BAGNOLET,['1 RUE JEAN JAURES'],False,RT,Paris
UI,PAR,700092714,HOTEL ARC DE TRIOMPHE,UIPAR341,2026-04-08 17:02:03,48.87672,2.29389,FR,75017,PARIS,['10 RUE DE L ARC DE TRIOMPHE'],False,nan,Paris
RT,PAR,700060229,MERCURE  PARIS VAUGIRARD PTE  V,RTPARVAU,2026-04-10 23:21:48,48.83307,2.28803,FR,75015,PARIS,['69 BOULEVARD VICTOR'],False,RT,Paris
AC,PAR,700163561,PARC HOTEL,ACPARR23,2025-11-06 12:07:39,48.82467,2.32681,FR,75014,PARIS,['60 RUE BEAUNIER'],False,nan,Paris
YX,PAR,700544177,HOTEL TABLETTERIE,YXPARTAB,2026-01-27 09:28:25,49.23849,2.13879,FR,60110,MERU,['51 BIS RUE ROGER SALENGRO'],False,nan,Paris
HI,PAR,700008344,HOLIDAY INN MONTMARTRE,HIPARA50,2026-04-12 23:06:53,48.8889,2.33317,FR,75018,PARIS,['23 RUE DAMREMONT'],False,6C,Paris
RT,PAR,700231545,IBIS STYLES PARIS VELIZY,RTPARIZY,2026-03-28 09:22:20,48.78085,2.21797,FR,78140,VELIZY VILLACOUBLAY,['39 AVENUE DE L EUROPE'],False,RT,Paris
SB,PAR,700221053,MOLITOR HOTEL AND SPA PARIS,SBPARMOL,2026-04-13 23:09:00,48.84494,2.25259,FR,75016,PARIS,['13 RUE NUNGESSER ET COLI'],False,RT,Paris
FG,PAR,700051487,LA COMTESSE,FGPARH77,2025-11-01 08:01:07,48.85392,2.3072,FR,75007,PARIS,['AVENUE DE TOURVILLE 29'],False,nan,Paris
YX,PAR,700030523,HOTEL CASIMIR,YXPAR319,2026-03-05 14:56:03,48.88434,2.29792,FR,75017,PARIS,['182 RUE DE COURCELLES'],False,nan,Paris
LX,PAR,700026946,HOTEL SAN REGIS,LXPARSAN,2026-02-18 03:34:20,48.86645,2.30852,FR,75008,PARIS,['12 RUE JEAN GOUJON'],False,nan,Paris
UI,PAR,700007094,ELYSEES CERAMIC HOTEL,UIPARECH,2026-04-08 18:55:26,48.87705,2.29765,FR,75008,PARIS,['34 AVENUE DE WAGRAM'],False,nan,Paris
FG,PAR,700092057,HOTEL DE FRANCE INVALIDES,FGPARAKK,2023-12-07 13:40:47,48.85349,2.30921,FR,75007,PARIS,"['102, BOULEVARD LA TOUR MAUBOURG']",False,nan,Paris
YX,PAR,700290283,HOTEL ESMERALDA,YXPARHES,2025-10-28 01:13:35,48.85245,2.34726,FR,75005,PARIS,['4 RUE SAINT JULIEN LE PAU'],False,nan,Paris
YX,PAR,700136595,HOTEL ST GEORGES LAFAYETTE,YXPARSGL,2026-01-20 14:22:31,48.88056,2.33921,FR,75009,PARIS,['11 RUE VICTOR MASSE'],False,nan,Paris
NN,PAR,700140440,PREMIERE CLASSE BOISSY SAINT LEGER,NNPARP15,2025-11-07 07:30:24,48.75992,2.50127,FR,94478,BOISSY-ST-LEGER,['4 RUE POMPADOUR'],False,LI,Paris
BD,PAR,700224744,B&B HOTEL PARIS PORTE DE LA VILLETTE,BDPARPVI,2026-03-26 09:43:34,48.9013,2.38901,FR,75019,Paris,['4 RUE EMILIE REYNAUD'],False,LK,Paris
IW,PAR,700029512,EIFFEL TROCADERO,IWPAREFT,2025-09-25 15:54:10,48.86129,2.28634,FR,75116,PARIS,['35 RUE BENJAMIN FRANKLIN'],False,nan,Paris
CY,PAR,700668357,COURTYARD GARE LYON MARRIOTT,CYPARGLC,2026-04-14 09:15:37,48.84512,2.3713,FR,75012,PARIS,['209 211 RUE DE BERCY'],False,EM,Paris
HS,PAR,700133848,HOTEL LES JARDINS D' EPONE,HSPARCIF,2025-03-10 09:33:08,48.96031,1.81326,FR,78680,EPONE,"['220, AVENUE DE LA MAULDRE']",False,nan,Paris
YX,PAR,700054657,PALAIS DE CHAILLOT,YXPARPDC,2025-10-28 17:21:36,48.86572,2.28616,FR,75116,PARIS,['35 AV RAYMOND POINCARE'],False,nan,Paris
BD,PAR,700308923,B&B HOTEL NOISY LE GRAND,BDPARNOI,2026-03-26 09:43:25,48.83567,2.54909,FR,93160,NOISY LE GRAND,"['RUE SANCHO PANCA', 'QUARTIER DU MONTFORT']",False,LK,Paris
RW,PAR,700006555,HOTEL DE CRILLON ROSEWOOD,RWPARRCR,2026-01-03 02:28:18,48.86735,2.32105,FR,75008,PARIS,['10 PLACE DE LA CONCORDE'],False,nan,Paris
AC,PAR,700034198,IDOL,ACPARJ74,2026-01-09 16:00:18,48.87947,2.32032,FR,75008,PARIS,['16 RUE D EDIMBOURG'],False,nan,Paris
YX,PAR,700136781,SEJOURS AFFAIRES LE MAGISTERE,YXPARII4,2025-10-30 07:08:13,48.80096,2.45061,FR,94000,CRETEIL,['100 AVENUE DU MAL DE LATTRE DE TASSIGNY'],False,nan,Paris
AC,PAR,700030082,CONTACT HOTEL ALIZE MONTMARTRE,ACPARI30,2024-06-03 09:41:57,48.88376,2.32869,FR,75009,PARIS,['71 RUE DE DOUAI'],False,nan,Paris
LW,PAR,700052136,HOTEL BARRIERE FOUQUETS PARIS,LWPAR635,2026-02-24 08:01:42,48.87169,2.3008,FR,75008,PARIS,"['46 AVENUE GEORGE V', '99 AVENUE DES CHAMPS ELYSEES']",False,nan,Paris
AC,PAR,700305689,TOURISME AVENUE,ACPARH86,2026-04-14 09:15:28,48.84954,2.29823,FR,75015,PARIS,['66 AVENUE DE LA MOTTE PICQUET'],False,nan,Paris
MO,PAR,700009634,MANDARIN ORIENTAL LUTETIA PAR,MOPAR650,2026-04-06 06:18:13,48.85118,2.32715,FR,75006,PARIS,['45 BOULEVARD RASPAIL'],False,nan,Paris
AZ,PAR,700041113,CITADINES MONTPARNASSE PARIS,AZPAR309,2026-04-14 09:15:29,48.83921,2.32249,FR,75014,PARIS,['67 AVENUE DU MAINE'],False,nan,Paris
RT,PAR,700183404,IBIS BUDGET SANTENY,RTPARSAN,2026-03-30 09:30:20,48.71989,2.5644,FR,94440,SANTENY,"['L OR#BCE DU VAL DE MARNE', 'RUE DU NOYER DE SAINT-GERMAIN']",False,RT,Paris
BR,PAR,700024753,RENAISSANCE PARIS NOBEL TOUR EIFFEL,BRPARSPB,2026-04-12 05:25:44,48.86735,2.28573,FR,75116,PARIS,['55-57 AVENUE RAYMOND POINCARE'],False,EM,Paris
BR,PAR,700283324,RENAISSANCE PARIS REPUBLIQUE,BRPARPRB,2026-04-12 15:21:45,48.86859,2.36102,FR,75010,PARIS,['40 RUE RENE BOULANGER'],False,EM,Paris
FG,PAR,700032774,LE 37 BIS HOTEL,FGPAR37B,2023-08-01 09:51:20,48.88192,2.27923,FR,92200,NEUILLY SUR SEINE,['37 BIS AVENUE DU ROULE'],False,nan,Paris
YX,PAR,700019947,HOTEL VILLA ROYALE,YXPARVRO,2025-12-21 09:03:02,48.88216,2.33673,FR,75009,PARIS,['2 RUE DUPERRE'],False,nan,Paris
RT,PAR,701149187,GREET HOTEL PARIS NORD 18E,RTPARNOD,2026-03-30 09:36:28,48.9017,2.36028,FR,75018,PARIS,['7-9 IMPASSE MARTEAU'],False,RT,Paris
AC,PAR,700040527,BEAUREGARD,ACPARO42,2026-02-20 12:41:21,48.84078,2.29915,FR,75015,PARIS,['14 RUE PETEL'],False,nan,Paris
DS,PAR,700005779,HOTEL ROCHECHOUART,DSPAR4NY,2026-02-19 21:37:46,48.88203,2.34093,FR,75009,PARIS,['55 BOULEVARD MARGUERITE DE ROCHECHOUART'],False,nan,Paris
FG,PAR,700464089,DRAWING HOTEL,FGPARDRA,2026-01-27 11:14:39,48.86441,2.3361,FR,75001,PARIS,['17 RUE DE RICHELIEU'],False,nan,Paris
YX,PAR,700009412,HOTEL VERNET CHAMPS ELYSEES,YXPARK02,2026-02-27 10:05:46,48.87197,2.29793,FR,75008,PARIS,['25 RUE VERNET'],False,nan,Paris
SB,PAR,700783442,LE DOMAINE DES VANNEAUX,SBPARDES,2026-04-01 10:52:44,49.12119,2.26189,FR,95590,PRESLES,['1 ROUTE DU GOLF DES VANNEAUX'],False,RT,Paris
RT,PAR,700907413,NOVOTEL PARIS PORTE DE VERSAILLES,RTPARRTE,2026-04-02 23:22:36,48.83008,2.29224,FR,75015,PARIS,['4 AV DE LA PORTE DE LA PLAINE'],False,RT,Paris
WV,PAR,700013620,TIMHOTEL MONTMARTRE,WVPARHMO,2026-04-01 13:41:28,48.88598,2.33765,FR,75018,PARIS,['11 RUE RAVIGNAN'],False,TC,Paris
YX,PAR,700006066,HOTEL BRADY,YXPARCJA,2025-11-04 12:00:52,48.87118,2.35499,FR,75010,PARIS,"['31, BOULEVARD DE STRASBOURG']",False,nan,Paris
BW,PAR,700024441,BEST WESTERN PLUS LA DEMEURE,BWPAR847,2025-08-17 23:22:03,48.8378,2.35578,FR,75013,PARIS,['51 BOULEVARD SAINT-MARCEL'],False,EW,Paris
AC,PAR,700050449,AGATE,ACPARH93,2025-11-22 08:22:13,48.84764,2.39984,FR,75012,PARIS,['8 COURS DE VINCENNES'],False,nan,Paris
HY,PAR,700021294,PARK HYATT PARIS-VENDOME,HYPARVEN,2025-08-13 11:13:25,48.86877,2.33052,FR,75002,PARIS,['5 RUE DE LA PAIX'],False,LH,Paris
YX,PAR,700162737,HOTEL FELICIEN,YXPARFEL,2025-11-06 02:19:27,48.84937,2.27442,FR,75016,PARIS,['21 RUE FELICIEN DAVID'],False,nan,Paris
FG,PAR,700092010,HOTEL CAMBON,FGPARCAM,2024-11-19 09:13:08,48.86639,2.32524,FR,75001,PARIS,['3 RUE DE CAMBON'],False,nan,Paris
MC,PAR,700009903,PARIS MARRIOTT CHAMPS ELYSEES,MCPARDTM,2026-04-12 17:53:53,48.87102,2.30493,FR,75008,PARIS,['70 AVE DES CHAMPS ELYSEES'],False,EM,Paris
AC,PAR,700020664,TURENNE LE MARAIS,ACPARE14,2025-01-14 15:18:04,48.85496,2.36335,FR,75004,PARIS,['6 RUE DE TURENNE'],False,nan,Paris
AC,PAR,700030941,LE BON HOTEL,ACPAR571,2024-05-09 13:44:08,48.88615,2.26115,FR,92200,PARIS,['13 RUE DU CHATEAU'],False,nan,Paris
FG,PAR,700029511,HC MAISON NABIS,FGPAR402,2026-02-03 09:13:05,48.88119,2.3278,FR,75009,PARIS,['7 RUE DE PARME'],False,nan,Paris
OI,PAR,700023538,HOTEL L ELYSEE VAL D EUROPE - SERRIS,OIPARELY,2025-11-17 09:07:46,48.85553,2.7755,FR,77700,SERRIS,['7 COURS DU DANUBE'],False,LK,Paris
AC,PAR,700009674,BELAMBRA CITY HOTEL MAGENDIE,ACPARI50,2024-06-03 09:53:36,48.83407,2.34612,FR,75013,PARIS,['2/4 RUE MAGENDIE'],False,nan,Paris
MC,PAR,700004475,PARIS MARRIOTT OPERA AMBASSADOR HOTEL,MCPAROAM,2026-04-12 13:45:28,48.87257,2.33692,FR,75009,PARIS,['16 BOULEVARD HAUSSMANN'],False,EM,Paris
GT,PAR,700014212,GOLDEN TULIP WASHINGTON OPERA HOTEL,GTPARGOL,2025-12-04 07:29:09,48.86626,2.33723,FR,75001,PARIS,['50 RUE DE RICHELIEU'],False,LI,Paris
FG,PAR,700007868,HOTEL LE 20 PRIEURE,FGPARLEP,2023-08-01 09:46:42,48.86601,2.36851,FR,75011,PARIS,['20 RUE DU GRAND PRIEURE'],False,nan,Paris
NN,PAR,700140452,PREMIERE CLASSE EPINAY SUR ORGE,NNPARP25,2026-01-28 09:50:02,48.67784,2.33508,FR,91360,EPINAY-SUR-ORGE,['1 B RUE DE CHARAINTRU'],False,LI,Paris
BD,PAR,700058184,B&B HOTEL MARNE-LA-VALLEE CHELLES,BDPAR851,2026-03-26 09:43:20,48.88919,2.59161,FR,77500,CHELLES,"[""6 RUE DE L'ORMETEAU"", 'ZAC LA TUILERIE']",False,LK,Paris
YX,PAR,700146299,VICE VERSA HOTEL,YXPARVVH,2026-04-09 11:00:55,48.83635,2.28968,FR,75015,PARIS,['213 RUE CROIX NIVERT'],False,nan,Paris
RT,PAR,700183367,IBIS BUDGET PARIS AUBERVILLIERS,RTPARAUB,2026-04-14 09:15:29,48.91043,2.38038,FR,93300,AUBERVILLIERS,"['53-61,RUE DE LA COMMUNE DE PARIS']",False,RT,Paris
NN,PAR,700091019,KYRIAD BRIE COMTE ROBERT,NNPARC45,2025-10-14 11:05:31,48.70315,2.59904,FR,77170,BRIE COMTE ROBERT,['ZONE DE LA HAIE PASSART'],False,LI,Paris
UI,PAR,700027676,LENOX MONTPARNASSE HOTEL,UIPARLNX,2026-04-08 16:59:45,48.8416,2.32796,FR,75014,PARIS,['15 RUE DELAMBRE'],False,nan,Paris
AC,PAR,700026279,NOUVEL EIFFEL,ACPARNOU,2025-11-28 08:05:54,48.84332,2.30675,FR,75015,PARIS,"['5, RUE DES VOLONTAIRES']",False,nan,Paris
NN,PAR,700575014,CAMPANILE PARIS - CLICHY CENTRE,NNPARC73,2025-10-14 18:05:12,48.90284,2.3033,FR,92110,CLICHY,['3 PLACE DU MARCHE'],False,LI,Paris
GD,PAR,700059846,LE MANOIR DE GRESSY,GDPARMAN,2025-08-06 11:03:28,48.965,2.67409,FR,77410,GRESSY,['CHEMIN DES CARROSSES'],False,nan,Paris
YX,PAR,700030853,HOTEL HAUTEVILLE OPERA,YXPARH27,2025-10-28 06:17:37,48.87389,2.35042,FR,75010,PARIS,['41 RUE D HAUTEVILLE'],False,nan,Paris
YX,PAR,700030516,HOTEL DU THEATRE,YXPAR441,2025-11-01 12:20:08,48.88218,2.3186,FR,75017,PARIS,['5 RUE DE CHEROY'],False,nan,Paris
RT,PAR,700183369,IBIS BUDGET PARIS PTE MONTREUIL,RTPARREU,2026-04-14 09:15:29,48.85453,2.41557,FR,93100,MONTREUIL,['278 280 RUE DE PARIS'],False,RT,Paris
RC,PAR,701099171,RESIDENCE INN PARIS CHARLES DE GAULLE CE,RCPARRIR,2026-04-12 06:44:21,49.00881,2.54921,FR,95700,ROISSY EN FRANCE,['10 RUE DU VOYAGEUR'],False,EM,Paris
AC,PAR,700594522,MOM'ART HOTEL,ACPARK47,2024-06-04 12:42:19,48.88371,2.34267,FR,75018,PARIS,['42 RUE D ORSEL'],False,nan,Paris
RT,PAR,700029515,IBIS STYLES PARIS TOLBIAC BNF,RTPARA56,2026-04-14 09:15:28,48.82896,2.37408,FR,75013,PARIS,['21 RUE DE TOLBIAC'],False,RT,Paris
FG,PAR,700009567,HOTEL LORETTE - ASTOTEL,FGPAR531,2025-01-20 09:57:11,48.87895,2.337,FR,75009,PARIS,"['36, RUE NOTRE DAME DE LORETTE']",False,nan,Paris
FG,PAR,700059478,FLANELLES PARIS GARE DU NORD,FGPARFLA,2024-06-22 09:07:04,48.87953,2.35657,FR,75010,PARIS,['11 RUE DE DUNKERQUE'],False,nan,Paris
YX,PAR,700092140,HTL RELAIS MONTMARTRE,YXPARLRM,2026-03-18 18:26:54,48.88538,2.33351,FR,75018,PARIS,['6 RUE CONSTANCE'],False,nan,Paris
CU,PAR,700488657,CITIZENM PARIS GARE DE LYON,CUPARLYI,2026-04-10 17:34:15,48.84376,2.3717,FR,75012,PARIS,['8 RUE VAN GOGH'],False,EM,Paris
YX,PAR,700262867,HOTEL DE L AVRE,YXPARCVB,2025-10-31 12:08:17,48.84782,2.29764,FR,75015,PARIS,"[""21, RUE DE L'AVRE""]",False,nan,Paris
RT,PAR,700027582,TRIBE PARIS BATIGNOLLES,RTPARPAR,2026-04-02 23:22:39,48.89049,2.31755,FR,75017,PARIS,['176 RUE CARDINET'],False,RT,Paris
RT,PAR,700778148,IBIS GONESSE LE BOURGET,RTPARESS,2026-03-05 00:24:32,48.96911,2.46339,FR,95500,GONESSE,['2 RUE DE MONTSERVON'],False,RT,Paris
BD,PAR,700061720,B&B HOME VELIZY,BDPARVEL,2026-03-26 09:44:42,48.78264,2.2242,FR,78140,Velizy Villacoublay,['1 TER RUE DU PETIT CLAMART'],False,LK,Paris
BD,PAR,700263479,B&B HOTEL MARNE LA VALLE - BUSSY ST GEOR,BDPARBUS,2026-03-26 09:43:49,48.8326,2.70363,FR,77600,BUSSY ST GEORGES,"['Z.A.C. DU CENTRE VILLE', '6 AV. MARIE CURIE']",False,LK,Paris
FG,PAR,700032361,GRAND HOTEL DU HAVRE,FGPARGHH,2025-06-25 07:58:06,48.87658,2.32699,FR,75009,PARIS,['18 RUE D AMSTERDAM'],False,nan,Paris
AC,PAR,700029520,EDOUARD VI,ACPARO59,2025-04-10 07:42:45,48.84423,2.32353,FR,75006,PARIS,['61 BOULEVARD DU MONTPARNASSE'],False,nan,Paris
FG,PAR,700080203,CHALGRIN BOUTIQUE HOTEL,FGPARMON,2026-04-14 09:15:15,48.87431,2.28968,FR,75116,PARIS,['1 RUE D ARGENTINE'],False,nan,Paris
YX,PAR,700038717,HOTEL FERTEL MAILLOT,YXPAR299,2026-01-29 16:18:29,48.87814,2.28519,FR,75017,PARIS,['269 BOULEVARD PEREIRE'],False,nan,Paris
GD,PAR,700062177,HOTEL MADISON,GDPARMAD,2026-03-26 08:20:56,48.85326,2.33442,FR,75006,PARIS,['143 BLEVARD SAINT GERMAIN'],False,nan,Paris
BD,PAR,700338864,B&B HOTEL HERBLAY,BDPARHER,2026-03-26 09:43:30,48.99978,2.18199,FR,95220,HERBLAY,['255 BOULEVARD DU 8 MAI 1945'],False,LK,Paris
RT,PAR,700092098,IBIS DAUMESNIL PORTE DOREE,RTPARDOR,2026-04-01 09:11:05,48.83511,2.40539,FR,75012,PARIS,['111 BOULEVARD PONIATOWSKI'],False,RT,Paris
OT,PAR,700009325,LE BRISTOL,OTPAR012,2025-12-09 15:35:01,48.87173,2.31477,FR,75008,PARIS,"['112 RUE FAUBOURG', 'SAINT HONORE']",False,nan,Paris
WV,PAR,700042017,TIMHOTEL ODESSA MONTPARNASSE,WVPAR365,2026-04-01 13:40:57,48.84268,2.32435,FR,75014,PARIS,['8 RUE D ODESSA'],False,TC,Paris
YX,PAR,700029553,HOTEL BRITTANY,YXPARHBP,2026-03-02 08:20:46,48.87679,2.33833,FR,75009,PARIS,['3 TO 5 RUE SAINT LAZARE'],False,nan,Paris
FG,PAR,700490785,HOTEL GRAPHIK MONTPARNASSE,FGPARPAL,2025-05-13 15:38:23,48.83484,2.32426,FR,75014,PARIS,['131 AVENUE DU MAINE'],False,nan,Paris
WV,PAR,701049067,MOB HOUSE PARIS,WVPAR296,2024-01-17 08:07:35,48.90492,2.33768,FR,93400,SAINT OUEN PARIS,['70 RUE DES ROSIERS'],False,TC,Paris
YX,PAR,700029539,THE JANGLE PARIS,YXPARXAC,2026-04-13 13:33:33,49.02205,2.59967,FR,77990,LE MESNIL AMELOT,"['RUE DE LA CHAPPELLE 1', 'AT CHARLES DE GAULLE AIRPORT']",False,nan,Paris
HL,PAR,700052037,DOUBLETREE BY HILTON PARIS BOUGIVAL,HLPAR4FC,2026-04-09 12:11:02,48.8676,2.14523,FR,78380,BOUGIVAL,"['10-12 RUE YVAN TOURGUENEFF RN 13', 'PARIS']",False,EH,Paris
CI,PAR,700147420,COMFORT HOTEL ETAMPES,CIPAR520,2024-02-29 07:37:45,48.43433,2.17092,FR,91150,ETAMPES,['AVENUE DE COQUERIVE'],False,EC,Paris
RT,PAR,700233227,IBIS BUDGET VERSAILLES TRAPPES,RTPARTRA,2026-03-28 09:24:51,48.7666,1.97423,FR,78197,TRAPPES,"['CENTRE DE VIE IMMOPARC', 'RN 10']",False,RT,Paris
AC,PAR,700027662,HOTEL CORDELIA OPERA - MADELEINE,ACPAR707,2025-12-11 09:13:30,48.87317,2.32526,FR,75008,PARIS,['11 RUE DE GREFFUHLE'],False,nan,Paris
NN,PAR,700076364,CAMPANILE PRIME - PORTE ITALIE,NNPARC06,2026-04-14 09:15:35,48.81583,2.36005,FR,94270,LEKREMLIN BICETRE,"['2 BLD DU GENERAL DE', 'GAULLE']",False,LI,Paris
RT,PAR,700010538,NOVOTEL MARNE VALLEE COLLEGIEN,RTPARMRV,2026-03-30 23:27:21,48.83042,2.67934,FR,77090,COLLEGIEN,"['2 ALLEE DES PORTES DE LA FORET', 'Z.A.E LES PORTES DE LA FORET']",False,RT,Paris
OX,PAR,700162175,MOXY PARIS LA VILLETTE,OXPARVXX,2026-04-14 09:18:22,48.89723,2.38553,FR,75019,PARIS,['28 AVENUE CORENTIN CARIOU'],False,EM,Paris
YX,PAR,701334252,LE BUS PALADIUM,YXPARLBP,2026-03-27 13:49:22,48.88078,2.33492,FR,75009,PARIS,['6 RUE FONTAINE'],False,nan,Paris
YX,PAR,700024154,HOTEL LE PRADEY,YXPARPRA,2026-03-27 08:41:01,48.86447,2.33151,FR,75001,PARIS,['5 RUE ST ROCH'],False,nan,Paris
HI,PAR,701247524,HOLIDAY INN EXPRESS POISSY,HIPAR212,2026-04-02 13:17:05,48.9332,2.04605,FR,78300,POISSY,['19 BOULEVARD ROBESPIERRE'],False,6C,Paris
KY,PAR,700018143,MAISON EUGENIE,KYPAREUG,2024-06-23 09:08:33,48.88905,2.31416,FR,75017,PARIS,['RUE DE ROME 167'],False,nan,Paris
YX,PAR,700078970,MIDNIGHT HOTEL,YXPARK71,2025-11-02 23:37:07,48.87733,2.35598,FR,75010,PARIS,"['133, RUE DU FAUBOURG SAINT DENIS']",False,nan,Paris
FG,PAR,701229842,LA SOURCE - EXCLUSIVE APARTMENT,FGPARSOU,2024-02-21 09:15:34,48.87303,2.31719,FR,75008,PARIS,['7 RUE DE PENTHIEVRE'],False,nan,Paris
FG,PAR,700019941,HOTEL R DE PARIS,FGPARHOR,2025-06-02 14:45:16,48.87997,2.32898,FR,75009,PARIS,['41 RUE DE CLICHY'],False,nan,Paris
YX,PAR,700851326,RESIDHOME PUTEAUX LA DEFENSE,YXPARRPL,2026-02-09 07:59:09,48.88586,2.22975,FR,92800,PARIS,['99 AVENUE DU GENERAL DE GAULLE'],False,nan,Paris
UI,PAR,700011846,CHOUCHOU HOTEL,UIPARCHC,2026-04-08 18:23:38,48.87208,2.33476,FR,6875,PARIS,['11 RUE DU HELDER'],False,nan,Paris
GD,PAR,700939307,SIMONS BOUTIQUE HOTEL,GDPARSBH,2025-05-01 19:31:20,48.88967,2.36245,FR,75018,PARIS,['69 RUE RIQUET'],False,nan,Paris
FG,PAR,700140968,HC THE PLAYCE HOTEL,FGPAR674,2026-02-18 14:26:20,48.88863,2.3498,FR,75018,PARIS,['66 BOUVELARD BARBES'],False,nan,Paris
RT,PAR,700042298,IBIS STYLES PARIS ALESIA MONTRAPARNASSE,RTPARALI,2026-04-14 09:15:29,48.83039,2.32344,FR,75014,PARIS,['32 RUE DES PLANTES'],False,RT,Paris
YX,PAR,700046496,SHELL LA VILLA SAINT GERMAIN,YXPARVIH,2025-10-30 00:01:07,48.85541,2.33409,FR,75006,PARIS,['29 RUE JACOB'],False,nan,Paris
FS,PAR,700007506,FOUR SEASONS HOTEL PARIS,FSPAR837,2026-04-11 05:46:46,48.86879,2.30071,FR,75008,PARIS,['31 AVE GEORGE V'],False,nan,Paris
UI,PAR,700021957,HOTEL BALMORAL PARIS,UIPARE72,2026-04-08 19:00:47,48.87602,2.29388,FR,75017,PARIS,['6 RUE GENERAL LANREZAC'],False,nan,Paris
YX,PAR,700076360,HTL LE RELAIS MADELEINE,YXPARLIM,2025-10-27 23:28:41,48.8711,2.32689,FR,75009,PARIS,"['11 BIS RUE GODOT', 'DE MAUROY']",False,nan,Paris
YX,PAR,700076376,HOTEL MOULIN VERT,YXPARMVR,2025-12-23 10:08:40,48.83142,2.31982,FR,75017,PARIS,['74 RUE DU MOULIN VERT'],False,nan,Paris
BD,PAR,700026474,B&B HOTEL PARIS CHATILLON,BDPARCHA,2026-03-26 09:43:45,48.80225,2.28544,FR,92320,CHATILLON,['40 AVENUS DE VERDUN'],False,LK,Paris
RT,PAR,700092097,IBIS PARIS BERCY VILLAGE 12TH,RTPAREXP,2026-04-02 23:22:28,48.83241,2.38675,FR,75012,PARIS,['19 PLACE DES VINS DE FRANCE'],False,RT,Paris
RT,PAR,700061716,NOVOTEL SUITES PARIS MONTREUIL,RTPARSUI,2026-04-01 08:44:31,48.8561,2.41518,FR,75020,PARIS,['22 AVENUE DU PROF ANDRE LE MIERRE'],False,RT,Paris
FG,PAR,700004783,HOTEL ASTRA OPERA,FGPAR128,2025-01-14 14:16:57,48.87189,2.32814,FR,75009,PARIS,['29 RUE CAUMARTIN'],False,nan,Paris
WB,PAR,700515780,HOTEL SPLENDIDE ROYAL PARIS,WBPARSRP,2026-01-29 04:32:53,48.87096,2.31541,FR,75008,PARIS,['18 RUE DU CIRQUE'],False,nan,Paris
YX,PAR,701168948,HOTEL PILGRIM,YXPARPIL,2026-03-26 11:46:01,48.84907,2.35286,FR,75005,PARIS,['11 RUE DE POISSY'],False,nan,Paris
YX,PAR,700298979,LUX HOTEL PICPUS,YXPARPIC,2025-10-31 09:59:08,48.84374,2.4016,FR,75012,PARIS,['74 BOULEVARD DE PICPUS'],False,nan,Paris
CU,PAR,700252096,CITIZENM PARIS CHARLES DE GAULLE,CUPARCGI,2026-04-10 09:58:36,49.0096,2.5571,FR,93290,TREMBLAY EN FRANCE,"['7 RUE DE ROME', 'ROISSYPOLE']",False,EM,Paris
BD,PAR,700219504,B&B HOTEL PARIS NORD AULNAY SOUS BOIS,BDPARAUL,2026-03-26 09:43:41,48.95408,2.48454,FR,93600,AULNAY SOUS BOIS,['1 RUE LEONARD DE VINCI'],False,LK,Paris
FG,PAR,700054617,FOLKESTONE OPERA HOTEL,FGPARFOL,2025-06-19 06:58:31,48.87225,2.32504,FR,75008,PARIS,['9 RUE DE CASTELLANE'],False,nan,Paris
GD,PAR,700028106,COLOR DESIGN,GDPARCAA,2025-05-01 23:23:17,48.85389,2.3819,FR,75012,PARIS,['35 RUE DE CITEAUX'],False,nan,Paris
VX,PAR,700044536,VOCO PARIS MONTPARNASSE,VXPAR2FB,2026-04-13 01:25:20,48.83922,2.32263,FR,75014,PARIS,['79 - 81 AVENUE DU MAINE'],False,6C,Paris
YX,PAR,700683751,HOTEL LES CLES DU 27,YXPARCLE,2026-01-22 09:10:15,48.88361,2.3118,FR,75017,PARIS,['27 RUE DE TOCQUEVILLE'],False,nan,Paris
YX,PAR,700033056,BEAUGRENELLE ST-CHARLES TOUR,YXPAR032,2026-03-06 23:25:26,48.84724,2.28591,FR,75015,PARIS,['82 RUE SAINT-CHARLES'],False,nan,Paris
RD,PAR,700007423,MERCURE PARIS GARE DE L EST MAGENTA,RDPAR86A,2026-01-16 09:11:40,48.87601,2.35574,FR,75010,PARIS,"['1-3 COUR DE LA FERME ST LAZARE', 'ANGLE 79-81 BOULEVARD MAGENTA']",False,CW,Paris
FG,PAR,700031031,LE MAGELLAN,FGPARD35,2026-04-14 09:15:28,48.88343,2.29246,FR,75017,PARIS,['17-19 RUE JEAN BAPTISTE DUMAS'],False,nan,Paris
IW,PAR,700160021,HOTEL SIXTEEN PARIS MONTROUGE,IWPAR488,2026-02-07 14:46:16,48.81603,2.31082,FR,92120,MONTROUGE,['16 PLACE JEAN JAURES'],False,nan,Paris
AC,PAR,700025211,VANEAU SAINT GERMAIN,ACPARI55,2026-04-14 09:15:29,48.84861,2.32032,FR,75007,PARIS,['86 RUE VANEAU'],False,nan,Paris
NN,PAR,700091599,CAMPANILE ROISSY - AEROPORT CDG - LE MES,NNPARC55,2026-01-14 07:32:19,49.01814,2.58643,FR,77990,LE MESNIL AMELOT,['RUE DU STADE'],False,LI,Paris
GD,PAR,700316071,HOTEL SUB,GDPARSUB,2025-08-13 08:31:32,48.91345,2.27375,FR,92600,ASNIERES SUR SEINE,['2 TER VILLA AUBERT'],False,nan,Paris
YX,PAR,700054079,LUMEN PARIS LOUVRE,YXPARHLL,2026-03-27 14:49:19,48.86526,2.33297,FR,75001,PARIS,['15 RUE DES PYRAMIDES'],False,nan,Paris
RT,PAR,700092119,IBIS PARIS TOUR EIFFEL,RTPARCAM,2026-04-01 07:52:21,48.84705,2.30138,FR,75015,PARIS,"['2 RUE CAMBRONNE', 'EX HOTEL ARCADE']",False,RT,Paris
OK,PAR,700020670,LIBERTEL CANAL SAINT MARTIN,OKPARCAN,2026-04-14 09:15:29,48.88234,2.37103,FR,75019,PARIS,['5 AVENUE SECRETAN'],False,nan,Paris
NN,PAR,700139761,CAMPANILE VILLEJUST - ZA COURTABOEUF,NNPARC64,2026-04-14 09:15:38,48.68467,2.21824,FR,91140,VILLEJUST,"['2 AVENUE DES 2 LACS', 'ZA COURTABOEUF N 7']",False,LI,Paris
RT,PAR,700052304,NOVOTEL PARIS CHARENTON LE PONT,RTPARCHT,2026-04-01 07:58:39,48.82645,2.40523,FR,94227,CHARENTON LE PONT,['3-5 PLACE DES MARSEILLAIS'],False,RT,Paris
NN,PAR,700008790,KYRIAD PARIS 10 CANAL SAINT MARTIN REPUB,NNPAR650,2025-11-20 15:56:45,48.87282,2.36134,FR,75010,PARIS,['30 RUE LUCIEN SAMPAIX'],False,LI,Paris
BD,PAR,700504679,B&B HOTEL EVRY LISSES 2 - 3 ETOILES,BDPAREL2,2026-03-26 09:43:39,48.59401,2.43635,FR,91090,LISSES,['ZAC DU CLOS AUX POIS - RUE DE LA CLOSERIE'],False,LK,Paris
RT,PAR,700030493,IBIS PARIS NATION DAVOUT,RTPARIPN,2026-04-01 12:27:03,48.85551,2.40974,FR,75020,PARIS,['110 RUE DES ORTEAUX'],False,RT,Paris
NN,PAR,700092672,CAMPANILE NATURE - VILLENNES,NNPARC32,2025-11-04 11:11:43,48.93333,1.99253,FR,78670,VILLENNES SUR SEINE,"[""235 ROUTE D'ORGEVAL""]",False,LI,Paris
BW,PAR,700239051,BEST WESTERN PLUS SUITCASE,BWPAR815,2025-08-17 23:21:30,48.91136,2.27195,FR,92270,BOIS COLOMBES,['9 RUE DES BOURGUIGNONS'],False,EW,Paris
YX,PAR,700076363,HOTEL 15 MONTPARNASSE,YXPAR740,2026-02-09 08:49:18,48.84376,2.31557,FR,75015,PARIS,['153  RUE DE VAUGIRARD'],False,nan,Paris
YX,PAR,700026293,HOTEL DUMINY VENDOME,YXPARDUM,2025-10-28 23:42:43,48.86537,2.32941,FR,75001,PARIS,['3 TO 5 RUE DU MONT THABOR'],False,nan,Paris
FG,PAR,700132883,LE 12 HOTEL,FGPARH12,2025-02-14 08:49:43,48.87712,2.32211,FR,75008,PARIS,['12 RUE DE VIENNE'],False,nan,Paris
AC,PAR,700060932,HOTEL LE CARDINAL RUEIL CENTRE,ACPARK39,2025-03-14 08:09:28,48.87394,2.18179,FR,92500,PARIS,['1 PLACE RICHELIEU'],False,nan,Paris
YX,PAR,700026286,LE ROCROY HOTEL,YXPARJ54,2026-03-02 10:16:08,48.87962,2.35076,FR,75010,PARIS,['13 RUE DE ROCROY'],False,nan,Paris
RT,PAR,700008541,IBIS PARIS BASTILLE OPERA 11TH,RTPARBAS,2026-04-14 09:15:28,48.8574,2.37286,FR,75011,PARIS,['15 RUE BREGUET'],False,RT,Paris
FG,PAR,700020944,ARTEMISIA MONTMARTRE HOTEL PARIS,FGPARTEM,2025-11-18 10:41:44,48.88279,2.33467,FR,75009,PARIS,['11 RUE FROMENTIN'],False,nan,Paris
FG,PAR,700026984,HOTEL PONT ROYAL,FGPARROY,2025-11-14 13:57:45,48.85669,2.32771,FR,75007,PARIS,['5 RUE DE MONTALEMBERT'],False,nan,Paris
RT,PAR,700021971,ADAGIO VAL D'EUROPE,RTPAR674,2026-04-01 10:00:24,48.85603,2.78687,FR,77706,MARNE LA VALLEE,"['42 COURS DU DANUBE', 'MARNE LA VELLEE CEDEX 4']",False,RT,Paris
FG,PAR,701144963,HOWARD SUR SEINE,FGPARHOW,2025-07-30 09:05:44,48.90505,2.28688,FR,92600,ASNIERES SUR SEINE,['39 QUAI DU DOCTEUR DERVAUX'],False,nan,Paris
RT,PAR,700009474,HOTEL FAUBOURG GALANT PARIS,RTPARLIN,2026-03-30 08:55:18,48.87598,2.34206,FR,75009,PARIS,['19 RUE BUFFAULT'],False,RT,Paris
BD,PAR,700867838,B&B HOTEL PARIS SUD IGNY,BDPARIGN,2026-03-26 09:43:53,48.73279,2.23089,FR,91430,IGNY,['37 RUE MARYSE BASTIE'],False,LK,Paris
AC,PAR,700058139,BRIT HOTEL CONFORT ORLY MORANGIS,ACPARQ51,2026-02-20 13:16:00,48.6975,2.33092,FR,91420,MORANGIS,['81 RUE LAVOISIER'],False,nan,Paris
PH,PAR,700008401,LES JARDINS DU MARAIS,PHPARLJM,2026-03-11 10:02:08,48.86054,2.368,FR,75011,PARIS,['74 RUE AMELOT'],False,PV,Paris
YX,PAR,700035130,HOTEL AVAMA PRONY,YXPARHAP,2025-10-30 21:20:19,48.88451,2.29951,FR,75017,PARIS,['103 AVENUE DE VILLIERS'],False,nan,Paris
UI,PAR,700092148,ELYSEES FLAUBERT,UIPAR415,2026-04-08 19:20:08,48.88158,2.29816,FR,75017,PARIS,['19 RUE RENNEQUIN'],False,nan,Paris
AC,PAR,700359325,DES CARMES BY MALONE,ACPARO84,2024-12-18 11:30:50,48.84919,2.34781,FR,75005,PARIS,['5 RUE DES CARMES'],False,nan,Paris
YX,PAR,701052699,HOTEL BOTANISTE,YXPARBOT,2026-01-30 14:38:21,48.84506,2.2647,FR,75016,PARIS,['11 RUE MOLITOR'],False,nan,Paris
KY,PAR,700162024,ADONIS PARIS SUD,KYPARH78,2023-11-16 09:59:36,48.77032,2.36756,FR,94550,CHEVILLY LARUE,['196 AVENUE DE STALINGRAD 1'],False,nan,Paris
AC,PAR,700044735,LES DEUX GARES & SPA,ACPARL84,2026-02-20 12:38:43,48.87844,2.35829,FR,75010,PARIS,['2 RUE DES DEUX GARES'],False,nan,Paris
FG,PAR,700044771,HOTEL LE BAILLI DE SUFFREN,FGPAR873,2026-03-21 21:01:41,48.84695,2.30803,FR,75015,PARIS,['149 AVENUE DE SUFFREN'],False,nan,Paris
RT,PAR,700052807,IBIS PARIS LA VILLETTE 19,RTPARVLT,2026-04-01 07:52:33,48.89196,2.38476,FR,75019,PARIS,['31/35 QUAI DE L OISE'],False,RT,Paris
YX,PAR,701263192,SOHO HOUSE PARIS,YXPARSOH,2026-04-13 21:16:15,48.87977,2.33235,FR,75009,PARIS,['45 TO 47 RUE LA BRUYERE'],False,nan,Paris
RT,PAR,700092093,IBIS PARIS PERE LACHAISE,RTPARMLT,2026-04-01 08:18:56,48.86204,2.38546,FR,75011,PARIS,['80 RUE DE LA FOLIE REGNAULT'],False,RT,Paris
YX,PAR,700092078,TRIANGLE D OR HOTEL,YXPARHDC,2025-10-28 05:04:43,48.87049,2.32683,FR,75009,PARIS,['6 RUE GODOT DE MAUROY'],False,nan,Paris
YX,PAR,700032823,OBSERVATOIRE LUXEMBOURG,YXPAROBS,2025-11-01 04:09:12,48.84367,2.33903,FR,75005,PARIS,['107 BOULEVARD ST MICHEL'],False,nan,Paris
UI,PAR,700045688,HOTEL MERCEDES,UIPAR635,2026-04-08 16:47:03,48.88481,2.30338,FR,75017,PARIS,['128 AVENUE DE WAGRAM'],False,nan,Paris
BD,PAR,700225344,B&B HOTEL MONTLHERY,BDPARMTL,2026-03-26 09:43:31,48.62818,2.25891,FR,91310,LINAS MONTLHERY,"['ZAC LINAS - AUTODROME', '3 ALLEE FRANCOIS CEVERT']",False,LK,Paris
RT,PAR,700060225,MERCURE PARIS OPERA FAUBOURG MONTMARTRE,RTPARMON,2026-04-01 07:29:29,48.87302,2.34465,FR,75009,PARIS,['5 RUE DE MONTYON'],False,RT,Paris
GD,PAR,700058585,DE BUCI HOTEL,GDPAR111,2026-04-11 21:42:04,48.85385,2.33666,FR,75006,PARIS,['22 RUE DE BUCI'],False,nan,Paris
RT,PAR,700027695,NOVOTEL PARIS CENTRE TOUR EIFFEL,RTPAR001,2026-04-02 23:22:30,48.84984,2.28323,FR,75015,PARIS,['61 QUAI DE GRENELLE'],False,RT,Paris
RT,PAR,700083031,IBIS STYLES PARIS GARE EST TGV,RTPARGNE,2026-04-14 09:15:28,48.87587,2.35747,FR,75010,PARIS,['87 BOULEVARD DE STRASBOURG'],False,RT,Paris
WV,PAR,700491993,MOB HOTEL PARIS LES PUCES,WVPARMHP,2024-02-03 07:47:18,48.90569,2.33605,FR,93400,PARIS,['4 RUE GAMBETTA'],False,TC,Paris
GI,PAR,701167661,HILTON GARDEN INN PARIS LA VILLETTE,GIPAR707,2026-03-21 19:40:36,48.8963,2.38325,FR,75019,PARIS,['27 QUAI DE LE GIRONDE'],False,EH,Paris
RT,PAR,700044992,IBIS CLICHY CENTRE MAIRIE,RTPARCLC,2026-03-30 10:22:56,48.90368,2.30403,FR,92110,CLICHY,['4 RUE MARCELLIN BERTHELOT'],False,RT,Paris
WV,PAR,700030335,HOTEL GEORGE WASHINGTON,WVPARHOR,2023-08-01 09:50:49,48.87421,2.30453,FR,75008,PARIS,['43 RUE WASHINGTON'],False,TC,Paris
YX,PAR,700136785,SEJOURS AFFAIRES PARIS IVRY,YXPARCAJ,2025-10-30 07:01:10,48.82095,2.39079,FR,94200,IVRY SUR SEINE,"['4 RUE JEAN JACQUES ROUSSEAU,']",False,nan,Paris
BW,PAR,700040812,BEST WESTERN ALLEGRO NATION,BWPAR761,2026-04-13 17:33:35,48.84303,2.4051,FR,75012,PARIS,['33 AVENUE DU DOC ARNOLD NETTER'],False,EW,Paris
BW,PAR,700005958,BEST WESTERN HOTEL GRAND PARC,BWPAR870,2026-04-13 17:35:12,48.8556,2.74292,FR,77600,CHANTELOUP EN BRIE,['ROUTE DE LA FERME DU PAVILLON'],False,EW,Paris
YX,PAR,700044982,RESIDHOME VAL D EUROPE,YXPARI7W,2025-10-30 07:07:19,48.85493,2.77062,FR,77144,MONTEVRAIN,['3 PLACE JEAN MONNET'],False,nan,Paris
NN,PAR,700091903,CAMPANILE PRIME - NANTERRE,NNPARC17,2026-03-26 16:03:03,48.89196,2.21389,FR,92000,NANTERRE,['20-22 AV PABLO PICASSO'],False,LI,Paris
RT,PAR,700369503,IBIS PARIS BASTILLE ST ANTOINE,RTPARBTL,2026-03-28 08:32:54,48.85174,2.37866,FR,75011,PARIS,['13 RUE TROUSSEAU'],False,RT,Paris
YX,PAR,700046439,RESIDHOME COURBEVOIE LA DEFENSE,YXPARRPP,2025-10-30 15:54:08,48.89801,2.23812,FR,92400,COURBEVOIE,['49AVENUE DE L ARCHE'],False,nan,Paris
YX,PAR,700791660,EXPERIMENTAL MARAIS,YXPAR632,2026-03-27 10:48:01,48.86298,2.35807,FR,75003,PARIS,['116 RUE DU TEMPLE'],False,nan,Paris
YX,PAR,700174459,LA CONVERSATION,YXPARCPM,2025-10-29 09:24:48,48.83279,2.30368,FR,75015,PARIS,['61 RUE BRANCION'],False,nan,Paris
AC,PAR,700060783,LE TEMPLE DE JEANNE,ACPAR533,2025-07-15 07:51:53,48.85517,2.36024,FR,75004,PARIS,['125 RUE SAINT ANTOINE'],False,nan,Paris
AC,PAR,700134602,VILLA NICOLO,ACPARQ48,2025-12-18 08:35:32,48.85835,2.28051,FR,75016,PARIS,['3 RUE NICOLO'],False,nan,Paris
RT,PAR,700042734,MERCURE PARIS NANTERRE,RTPARMEC,2026-03-28 12:55:02,48.8966,2.19571,FR,92000,PARIS,['2 AVENUE BENOIT FRACHON'],False,RT,Paris
OI,PAR,700155478,HOTEL TERMINUS ORLEANS,OIPARHTO,2025-04-20 15:27:14,48.82359,2.32473,FR,75014,Paris,['197 BD BRUNE'],False,LK,Paris
QQ,PAR,700004755,MAISON ASTOR PARIS,QQPAR540,2026-03-30 00:36:20,48.87277,2.31936,FR,75008,PARIS,"['11, RUE D ASTORG']",False,EH,Paris
FG,PAR,700004776,HOTEL ASTORIA,FGPAR129,2025-01-14 13:08:55,48.88168,2.32294,FR,75008,PARIS,['42 RUE DE MOSCOU'],False,nan,Paris
NN,PAR,700139219,KYRIAD ECO - MONTREUIL,NNPARP42,2026-03-28 06:24:51,48.86842,2.43102,FR,93100,MONTREUIL,['64 RUE JEAN LOLIVE'],False,LI,Paris
FG,PAR,700005648,HOTEL LES BULLES DE PARIS,FGPARG95,2026-03-21 21:02:29,48.84918,2.34723,FR,75005,PARIS,['32 RUE DES ECOLES'],False,nan,Paris
YX,PAR,700158028,HOTEL FIRST PARIS,YXPARD37,2025-05-06 00:20:27,48.84768,2.30227,FR,75015,PARIS,['2 BOULEVARD GARIBALDI'],False,nan,Paris
RT,PAR,700060232,MERCURE PARIS SUD LES ULIS COURTABOEUF,RTPARORS,2026-04-14 09:15:29,48.67916,2.19905,FR,91952,LES ULIS,['3 RUE RIO SALADO'],False,RT,Paris
IW,PAR,700211797,HOTEL OPERA OPAL,IWPAR634,2026-02-16 09:07:32,48.87283,2.32572,FR,75008,PARIS,['19 RUE TRONCHET'],False,nan,Paris
NN,PAR,700091269,CAMPANILE CRETEIL CENTRE,NNPARC52,2026-04-01 06:28:40,48.78463,2.46,FR,94000,CRETEIL,['52 AVENUE DU CHEMIN DE MESLY'],False,LI,Paris
RT,PAR,700493174,IBIS SAINT GERMAIN EN LAYE,RTPARISG,2026-03-28 09:54:19,48.89608,2.09049,FR,78100,SAINT GERMAIN EN LAYE,['10 BIS RUE DES JOUERIES'],False,RT,Paris
YX,PAR,700132710,HOTEL DE SEVRES,YXPARSEV,2026-03-06 23:27:27,48.8481,2.32496,FR,75006,PARIS,['22 RUE DE L ABBE GREGOIRE'],False,nan,Paris
YX,PAR,700006438,VILLA D ESTREES HOTEL,YXPARVDE,2025-10-28 11:43:47,48.85351,2.34258,FR,750006,PARIS,['17 RUE GIT LE COEUR'],False,nan,Paris
RT,PAR,701248863,NOVOTEL PARIS LA DEFENSE NANTERRE,RTPARNLD,2026-04-01 13:02:56,48.89635,2.21938,FR,92000,NANTERRE,['14 RUE DES 3 FONTANOT'],False,RT,Paris
UI,PAR,700056833,HOTEL LOUISON EX AVIATIC,UIPARAVI,2026-04-14 09:15:28,48.84536,2.32134,FR,75006,PARIS,['105 RUE DE VAUGIRARD'],False,nan,Paris
HS,PAR,700045949,ALANE GARE DE L'EST,HSPARBCW,2023-08-01 09:54:03,48.87539,2.35707,FR,75010,PARIS,['BOULEVARD DE MAGENTA 72'],False,nan,Paris
WV,PAR,700045491,HOTEL APOLLINAIRE,WVPAR335,2025-03-21 07:46:01,48.84129,2.32578,FR,75014,PARIS,['39 RUE DELAMBRE'],False,TC,Paris
BD,PAR,700283396,B&B HOME PARIS MAIRIE DE SAINT-OUEN,BDPARMAI,2026-03-26 09:44:39,48.90963,2.33876,FR,93400,Paris,['65 RUE DU DOCTEUR BAUER'],False,LK,Paris
YX,PAR,700035194,REGINA OPERA,YXPARROP,2025-10-30 17:51:11,48.87085,2.35182,FR,75010,PARIS,['11 BIS RUE DE MAZAGRAN'],False,nan,Paris
AC,PAR,700035106,ATYPIK,ACPARI29,2025-01-14 16:20:14,48.90393,2.30693,FR,92110,CLICHY,['20 RUE VILLENEUVE'],False,nan,Paris
NN,PAR,700135832,KYRIAD ECO - SURESNES - LA DFENSE,NNPARP06,2026-03-31 08:23:27,48.86735,2.22654,FR,92150,SURESNES,['17 BD HENRI SELLIER'],False,LI,Paris
CY,PAR,700139823,COURTYARD SAINT DENIS MARRIOTT,CYPARSDC,2026-04-12 13:49:11,48.92222,2.343,FR,93200,SAINT DENIS,['34 BD DE LA LIBERATION ZAC PLE'],False,EM,Paris
NN,PAR,700133360,KYRIAD LE BOURGET CENTRE,NNPARK17,2026-01-05 10:37:32,48.93985,2.43091,FR,93350,LE BOURGET,['134-136 AV DE LA DIVISION LECLERC'],False,LI,Paris
FG,PAR,700009471,9HOTEL OPERA,FGPAR154,2026-03-21 21:03:11,48.87633,2.34714,FR,75009,PARIS,['14 RUE PAPILLON'],False,nan,Paris
RT,PAR,700092634,IBIS PARIS VANVES PARC EXPO,RTPARVNN,2026-04-02 23:22:28,48.82217,2.29411,FR,92170,VANVES,['43 RUE JEAN BLEUZEN'],False,RT,Paris
HI,PAR,700030404,HOLIDAY INN PARIS OPERA GRANDS BLVDS,HIPAREA4,2026-04-14 02:29:39,48.87157,2.34371,FR,75009,PARIS,['30-32 BOULEVARD POISSONNIERE'],False,6C,Paris
AC,PAR,700163556,HOTEL DELAMBRE PARIS MONTPARNASSE,ACPARA11,2025-01-14 15:17:55,48.84135,2.32608,FR,75014,PARIS,['35 RUE DELAMBRE'],False,nan,Paris
YX,PAR,700009137,HOTEL LA MANUFACTURE,YXPAR222,2026-01-22 13:06:27,48.83294,2.35543,FR,75013,PARIS,['8 RUE PHILIPPE DE CHAMPAG'],False,nan,Paris
YX,PAR,700009771,MARAIS BASTILLE,YXPAR535,2025-10-28 07:23:40,48.85725,2.37144,FR,75011,PARIS,['36 BOULEVARD RICHARD LENOIR'],False,nan,Paris
AC,PAR,700056601,ALISON,ACPARALI,2025-11-25 10:52:00,48.87105,2.32037,FR,75008,PARIS,"['21, RUE DE SURENE']",False,nan,Paris
YX,PAR,700071567,L EMPIRE PARIS,YXPARLEP,2026-02-18 22:52:43,48.86075,2.34258,FR,75001,PARIS,['48 RUE DE LARBRE SEC'],False,nan,Paris
YX,PAR,700544849,MAISON BREGUET,YXPARMAG,2026-03-27 08:38:56,48.85648,2.37201,FR,75011,PARIS,['8 RUE BREGUET'],False,nan,Paris
AC,PAR,700139725,CONTACT HOTEL BLEU FRANCE,ACPARN42,2025-10-27 16:22:44,49.01967,2.09676,FR,95610,ERAGNY,['RUE DES PINSONS'],False,nan,Paris
SB,PAR,701235211,DOMAINE REINE MARGOT PARIS ISSY MGALLERY,SBPARREI,2026-04-02 23:22:38,48.82286,2.27708,FR,92130,ISSY LES MOULINEAUX,['3 COURS DE LA REINE MARGOT'],False,RT,Paris
RT,PAR,700010110,MERCURE PARIS 15 P VERSAILLES,RTPAREME,2026-04-01 07:23:42,48.83833,2.29047,FR,75015,PARIS,['6 RUE SAINT LAMBERT'],False,RT,Paris
FG,PAR,700029554,HOTEL LA TREMOILLE,FGPARTRE,2025-09-25 11:54:09,48.86687,2.30286,FR,75008,PARIS,['14 RUE DE LA TREMOILLE'],False,nan,Paris
HI,PAR,701144906,HOLIDAY INN EXP MARNE LA VALLEE DEUROP,HIPAREE0,2026-04-02 09:14:50,48.8485,2.83105,FR,77700,BAILLY ROMAINVILLIERS,['BOULEVARD DES ARTISANS'],False,6C,Paris
UI,PAR,700026292,ROCHESTER CHAMPS ELYSEES HOTEL,UIPARREC,2026-04-08 18:28:23,48.87238,2.30931,FR,75008,PARIS,['92 RUE LA BOETIE'],False,nan,Paris
YX,PAR,700060388,LE MONNA LISA BY INWOOD,YXPAR218,2025-11-14 15:24:26,48.87154,2.30775,FR,75008,PARIS,['97 RUE LA BOETIE'],False,nan,Paris
RT,PAR,700320068,NOVOTEL PARIS EXPO PORTE DE VERSAILLES,RTPARNVT,2026-03-28 09:45:22,48.82759,2.30466,FR,75014,PARIS,['4 BOULEVARD BRUNE'],False,RT,Paris
AC,PAR,700025210,DU CADRAN,ACPAR478,2024-12-10 19:32:14,48.85654,2.30593,FR,75007,PARIS,"['10, RUE DU CHAMP DE MARS']",False,nan,Paris
YX,PAR,700130982,HOTEL DE LA BRETONNERIE,YXPARBRE,2025-12-03 00:00:29,48.85832,2.35602,FR,75004,PARIS,['22 RUE DE SAINTE CROIX DE LA BRETONNERIE'],False,nan,Paris
AC,PAR,700092146,HOTEL DU CHEMIN VERT,ACPARD53,2025-10-09 10:57:23,48.86101,2.38063,FR,75011,PARIS,['97 RUE DU CHEMIN VERT'],False,nan,Paris
BD,PAR,700237382,B&B HOTEL PARIS PORTE DES LILAS,BDPARLIL,2026-03-26 09:44:04,48.88004,2.40779,FR,75019,Paris,['23 AVENUE RENE FONCK'],False,LK,Paris
FG,PAR,700128895,ALMA,FGPARAJZ,2026-04-13 09:19:33,48.85698,2.30331,FR,75007,PARIS,"[""32, RUE DE L'EXPOSITION""]",False,nan,Paris
RT,PAR,700281597,HIPARK BY ADAGIO LA VILLETTE,RTPARHIP,2026-04-01 10:32:05,48.88489,2.39743,FR,75019,PARIS,['28 BOULEVARD D INDOCHINE'],False,RT,Paris
FG,PAR,700018144,HOTEL GASTON,FGPARGAS,2025-06-02 14:31:45,48.88749,2.30796,FR,75017,PARIS,['51 BOULEVARD PEREIRE'],False,nan,Paris
FG,PAR,700045083,THE ATLANTIC HOTEL,FGPARATL,2023-08-01 09:53:52,48.87814,2.32634,FR,75008,PARIS,['44 RUE DE LONDRES'],False,nan,Paris
IW,PAR,700495638,OKKO HOTELS PARIS PORTE DE VERSAILLES,IWPAROK2,2025-07-24 10:57:30,48.8325,2.27836,FR,75015,PARIS,['2 RUE DU COLONEL PIERRE AVIA'],False,nan,Paris
RT,PAR,700010236,IBIS STYLES PARIS BATIGNOLLES,RTPARISP,2026-04-01 12:16:48,48.88988,2.32116,FR,75017,PARIS,['119 AVENUE DE CLICHY'],False,RT,Paris
FG,PAR,700744828,HOTEL LES JARDINS DU FAUBOURG,FGPARLJD,2025-09-24 07:57:09,48.87022,2.31933,FR,75008,PARIS,['9 RUE D AGUESSEAU'],False,nan,Paris
YX,PAR,536961193,HOTEL JOLI MOME,YXPARHJM,2026-01-22 09:09:56,48.88379,2.32265,FR,75017,PARIS,['11 RUE DES BATIGNOLLES'],False,nan,Paris
AC,PAR,700072178,TAYLOR HOTEL,ACPAR167,2025-08-29 09:34:43,48.86942,2.35914,FR,75010,PARIS,"['6, RUE TAYLOR']",False,nan,Paris
AC,PAR,700092133,DES PAVILLONS,ACPARH79,2024-07-01 19:07:19,48.87643,2.2906,FR,75017,PARIS,['16 RUE DES ACACIAS'],False,nan,Paris
FG,PAR,700309090,HOTEL SAINT CYR ETOILE,FGPARCUV,2023-08-01 10:50:25,48.88046,2.28555,FR,75017,PARIS,['101 AVENUE DES TERNES'],False,nan,Paris
RT,PAR,700083439,ADAGIO ACCESS PARIS CLAMART,RTPARCLA,2026-04-14 09:15:29,48.78126,2.24088,FR,92140,CLAMART,['426 AV DU GENERAL DE GAULLE'],False,RT,Paris
YX,PAR,700150773,PLATINE HOTEL PARIS,YXPARPLA,2026-01-30 14:59:40,48.84741,2.28347,FR,75015,PARIS,['20 RUE ING ROBERT KELLER'],False,nan,Paris
NN,PAR,700135840,PREMIERE CLASSE ROISSY - AEROPORT CHARLE,NNPARP08,2026-03-07 07:26:10,48.99808,2.51567,FR,95700,ROISSY-EN-FRANCE,['ZAC DU PARC DE ROISSY - ALLEE DES VERGERS'],False,LI,Paris
SB,PAR,700045217,NEST PARIS LA DEFENSE MGALLERY,SBPARLAP,2026-04-01 07:24:48,48.88816,2.24842,FR,92800,PUTEAUX,['33 VOIE DES SCULPTEURS'],False,RT,Paris
WV,PAR,700049281,HOTEL LE M PARIS MONTPARNASSE,WVPAR800,2026-04-09 13:48:19,48.83982,2.32358,FR,75014,PARIS,['20 BIS RUE DE LA GAITE'],False,TC,Paris
CI,PAR,700117729,COMFORT HOTEL LINAS - MONTLHERY,CIPAR525,2024-03-11 13:53:03,48.62973,2.2625,FR,91310,LINAS MONTLHERY,['10 AVENUE ETTORE BUGATTI'],False,EC,Paris
YX,PAR,700030329,HTL LE RELAIS ST HONORE,YXPARLRH,2026-01-13 13:42:26,48.86519,2.33158,FR,75001,PARIS,['308 RUE SAINT HONORE'],False,nan,Paris
YX,PAR,700020649,LA BOURDONNAIS BY INWOOD,YXPARBOU,2025-11-13 16:21:58,48.85499,2.3046,FR,75007,PARIS,['111 AVENUE DE LA BOURDONNAIS'],False,nan,Paris
BD,PAR,700596848,B&B HOTEL SACLAY,BDPARSAC,2026-03-26 09:43:29,48.71409,2.17118,FR,GifsurYvette,91190,['RN 118 PLATEAU DU MOULON'],False,LK,Paris
YX,PAR,700072177,HOTEL PRINCE DE CONTI,YXPAR4IE,2026-04-13 15:50:52,48.85568,2.33841,FR,75006,PARIS,['8 RUE GUENEGAUD'],False,nan,Paris
FG,PAR,700059841,HOTEL LE 5 PARTICULIER,FGPARLE5,2026-02-20 11:07:34,48.87942,2.27496,FR,92200,NEUILLY SUR SEINE,['5 RUE PAUL DEROULEDE'],False,nan,Paris
AC,PAR,700165296,CLAIREFONTAINE,ACPARL20,2025-08-04 06:53:02,48.83597,2.32534,FR,75014,PARIS,['11 RUE FERMAT'],False,nan,Paris
AC,PAR,700032362,WILLIAMS OPERA,ACPAR493,2025-07-15 07:51:03,48.87684,2.34577,FR,75009,PARIS,['3 RUE MAYRAN'],False,nan,Paris
AC,PAR,700040811,CLARISSE,ACPAR499,2025-10-21 08:44:49,48.82899,2.30053,FR,75015,PARIS,"['159, BOULEVARD LEFEBVRE']",False,nan,Paris
RT,PAR,701247528,IBIS ACHERES,RTPARIBA,2026-03-28 13:11:04,48.97232,2.08034,FR,78260,ACHERES,"['2 AVENUE JACQUES CHIRAC', 'BUILDING B']",False,RT,Paris
YX,PAR,700083102,MAISON SAINTONGE,YXPARSAI,2025-10-31 14:40:14,48.86182,2.36262,FR,75003,PARIS,"['16, RUE DE SAINTONGE']",False,nan,Paris
IW,PAR,700054614,HOTEL MONTAIGNE,IWPARHMG,2026-01-10 14:33:15,48.86552,2.30387,FR,75008,PARIS,['6 AVENUE MONTAIGNE'],False,nan,Paris
HA,PAR,700032919,EXE PANORAMA,HAPARPAN,2025-09-16 11:36:44,48.8762,2.35,FR,75010,PARIS,"['RUE DES MESSAGERIES, 9']",False,nan,Paris
AC,PAR,700022717,GRAND HOTEL DES GOBELINS,ACPAR510,2026-04-14 09:15:31,48.83757,2.35503,FR,75013,PARIS,['57 BLVD SAINT MARCEL'],False,nan,Paris
WV,PAR,701094671,HOTEL MADAME REVE,WVPAR115,2025-06-20 03:43:27,48.86474,2.343,FR,75001,PARIS,['48 RUE DU LOUVRE'],False,TC,Paris
UI,PAR,700117174,HOTEL CRAYON,UIPAR952,2026-04-08 19:17:21,48.86398,2.34144,FR,75001,PARIS,['25 RUE DU BOULOI'],False,nan,Paris
OG,PAR,700325189,OG MARNE LA VALLEE EST MEAUX,OGPARIHM,2025-07-18 07:16:23,48.94574,2.86974,FR,77124,VILLENOY,['27 RUE JEAN PIERRE PLICQUE'],False,TC,Paris
YX,PAR,700132669,HOTEL GABBIE,YXPARA10,2026-02-04 11:24:19,48.87268,2.30206,FR,75008,PARIS,['9 RUE WASHINGTON'],False,nan,Paris
UI,PAR,701282445,BOUDOIR DES MUSES,UIPARBDM,2026-04-08 16:47:24,48.86135,2.36205,FR,75003,PARIS,['6 RUE DE SAINTONGE'],False,nan,Paris
YX,PAR,700030089,MADELEINE HAUSSMANN,YXPAR412,2025-10-28 11:38:47,48.87179,2.32331,FR,75008,PARIS,['10 RUE PASQUIER'],False,nan,Paris
FG,PAR,700030333,HOTEL LE FRIEDLAND,FGPAR360,2026-04-02 12:15:53,48.87509,2.30484,FR,75008,PARIS,['177 RUE DU FAUBOURG SAINT-HONO'],False,nan,Paris
YX,PAR,700026983,HOTEL BRIGHTON,YXPAR821,2025-10-28 11:38:36,48.86484,2.329,FR,75001,PARIS,['218 RUE DE RIVOLI'],False,nan,Paris
AC,PAR,700139873,D ORSAY,ACPARM56,2026-02-06 17:22:30,48.70421,2.18916,FR,91400,ORSAY,['2 RUE FRANCOIS LEROUX'],False,nan,Paris
BW,PAR,700030847,BW PLUS 61 PARIS NATION HOTEL,BWPAR790,2025-08-24 23:26:42,48.84644,2.41041,FR,75012,PARIS,['61 RUE DE LA VOUTE'],False,EW,Paris
YX,PAR,701276862,HOTEL MADAME DROUOT,YXPARMDR,2025-11-01 12:26:07,48.87392,2.34059,FR,75009,PARIS,['19 RUE DROUOT'],False,nan,Paris
WV,PAR,700584359,HOTEL MODE PARIS APARTHOTEL,WVPAR676,2026-03-05 07:48:15,48.8712,2.28729,FR,75116,PARIS,['4-6 RUE LEROUX'],False,TC,Paris
YX,PAR,700158008,HOTEL DU LION,YXPARHDL,2025-10-28 22:04:36,48.83338,2.33196,FR,75014,PARIS,['1 AVENUE D GENERAL LECLERC'],False,nan,Paris
IW,PAR,700194567,HOTEL MIRAMAR,IWPARMIR,2024-12-17 14:00:37,48.84229,2.32026,FR,75015,PARIS,['6 PLACE BIENVENUE'],False,nan,Paris
AC,PAR,700092123,MODERNISTE,ACPAR414,2026-04-14 09:15:15,48.83582,2.2924,FR,75015,PARIS,['5 RUE DE LANGEAC'],False,nan,Paris
YX,PAR,700029538,HOTEL ARIOSO,YXPARARI,2025-12-03 14:25:32,48.87465,2.31683,FR,75008,PARIS,['7 RUE D ARGENSON'],False,nan,Paris
AC,PAR,700423177,HOTEL DE JOBO,ACPARPAU,2025-09-19 07:57:09,48.85546,2.36193,FR,75004,PARIS,"['8, RUE DE', ""SEVIGNE TO 10 RUE D'ORMESSON""]",False,nan,Paris
FG,PAR,700041122,HOTEL DE LA JATTE,FGPARJAT,2025-04-12 09:07:24,48.894,2.26633,FR,92200,NEUILLY SUR SEINE,['4 BOULEVARD DU PARC'],False,nan,Paris
AC,PAR,700189763,HOTEL SLEEPING BELLE,ACPARD27,2026-04-14 09:15:34,48.84661,2.36974,FR,75012,PARIS,['234 RUE DE BERCY'],False,nan,Paris
FG,PAR,700013799,SOLLY HOTEL,FGPARLIT,2025-09-09 06:24:42,48.86751,2.35401,FR,75003,PARIS,['4 RUE SALOMON DE CAUS'],False,nan,Paris
AC,PAR,700670263,HOTEL B55 PARIS,ACPARJ96,2025-10-29 11:08:43,48.82598,2.34214,FR,75013,PARIS,['55 RUE BOUSSINGAULT'],False,nan,Paris
KY,PAR,700250050,GRAND HOTEL LEVEQUE,KYPARLEV,2024-06-14 15:13:52,48.85744,2.30618,FR,75007,PARIS,['29 RUE CLER'],False,nan,Paris
OI,PAR,700053350,L EXPOSITION TOUR EIFFEL,OIPARETE,2025-04-20 06:09:17,48.84881,2.28815,FR,75015,Paris,['42 BIS RUE DU THEATRE'],False,LK,Paris
NN,PAR,700140467,KYRIAD ECO - MARNE-LA-VALLE,NNPARP39,2026-03-13 06:23:03,48.85345,2.66607,FR,77400,ST-THIBAULT-DES-VIGNES,"['RUE DE L ETANG DE LOY', 'MARNE LA VALLEE']",False,LI,Paris
UZ,PAR,700054635,HOTEL ETOILE TROCADERO,UZPAR224,2025-04-16 19:54:11,48.86617,2.28713,FR,75116,PARIS,['21 RUE SAINT DIDIER'],False,nan,Paris
YX,PAR,700117094,APPARTCITY PARIS 13,YXPARGRA,2026-01-08 14:23:42,48.82785,2.37961,FR,75013,PARIS,['70 AVENUE DE FRANCE'],False,nan,Paris
YX,PAR,700062210,DIESE HOTEL BASTILLE,YXPARCBA,2025-10-29 21:17:46,48.85504,2.38654,FR,75011,PARIS,['131 RUE DE CHARONNE'],False,nan,Paris
IW,PAR,700073880,CHATEAU D AUGERVILLE,IWPARCAU,2026-04-14 02:38:23,48.25102,2.43893,FR,FRANCE,AUGERVILLE LA RIVIERE,['PLACE DU CHATEAU'],False,nan,Paris
WB,PAR,700011706,RELAIS CHRISTINE,WBPARCHP,2026-03-16 11:24:07,48.85443,2.33998,FR,75006,PARIS,['3 RUE CHRISTIN'],False,nan,Paris
FG,PAR,700048871,HOTEL VILLA DES AMBASSADEURS,FGPARVDA,2024-05-14 15:09:52,48.86531,2.29052,FR,75116,PARIS,['6 RUE BOUQUET DE LONGCHAMP'],False,nan,Paris
RT,PAR,700024247,IBIS PARIS PORTE DE BERCY,RTPARPPB,2026-04-01 08:17:08,48.82515,2.39397,FR,94220,CHARENTON LE PONT,['2 PLACE DE L EUROPE'],False,RT,Paris
AC,PAR,700092277,GREEN HOTELS CONFORT ROISSY,ACPARI10,2024-06-03 09:38:25,48.97703,2.51118,FR,93290,TREMBLAY EN FRANCE,['62 RUE DE LA PERDRIX'],False,nan,Paris
RT,PAR,700183372,IBIS BUDGET PARIS PTE VINCENNE,RTPARVIE,2026-03-28 09:27:20,48.84933,2.41638,FR,75020,PARIS,['2 AVENUE LEON GAUMONT'],False,RT,Paris
YX,PAR,700027675,HOTEL ANTIN SAINT GEORGES,YXPARCWA,2026-02-18 22:51:42,48.87797,2.33786,FR,75009,PARIS,['21 RUE NOTRE DAME DE LORETTE'],False,nan,Paris
UI,PAR,700372787,BOB HOTEL,UIPARBOB,2026-04-08 17:52:50,48.83349,2.31899,FR,75014,PARIS,['30 RUE PERNETY'],False,nan,Paris
BD,PAR,701053815,B&B HOTEL CRETEIL,BDPARCRE,2026-03-26 09:43:54,48.76752,2.46447,FR,94000,CRETEIL,['4 RUE DANIEL COSTANTINI'],False,LK,Paris
AC,PAR,700514529,LES JARDINS DE SAINT CLOUD,ACPARN46,2025-02-04 21:39:23,48.84393,2.22168,FR,92210,SAINT CLOUD,['15 RUE DANTAN'],False,nan,Paris
RT,PAR,700092117,IBIS PARIS BRANCION EXPO 15EME,RTPARGRR,2026-04-01 08:13:48,48.83024,2.30202,FR,75015,PARIS,['105 RUE BRANCION'],False,RT,Paris
OI,PAR,700290100,PARIS D ISSY HOTEL PORTE DE VERSAILLES,OIPARMAI,2025-04-19 19:14:17,48.82349,2.27294,FR,92230,ISSY LES MOULINEAXU,['4 RUE AUGUSTE'],False,LK,Paris
PH,PAR,700005874,CASTILLE PARIS STARHOTELS LVX,PHPARCPH,2026-03-10 17:02:34,48.86832,2.32686,FR,75001,PARIS,['33-37 RUE CAMBON'],False,PV,Paris
OI,PAR,700158027,MAISON ATHENEE,OIPARATH,2025-04-20 05:08:13,48.87137,2.32805,FR,75009,Paris,['19 RUE CAUMARTIN'],False,LK,Paris
RT,PAR,700010103,MERCURE MONTMARTRE SACRE COEUR,RTPARMTR,2026-04-02 23:22:22,48.88527,2.33007,FR,75018,PARIS,['3 RUE CAULAINCOURT'],False,RT,Paris
PH,PAR,700005190,LE BELMONT PARIS,PHPARBCE,2026-01-22 16:02:43,48.86924,2.29784,FR,75116,PARIS,['30 RUE DE BASSANO'],False,PV,Paris
IW,PAR,700022430,HOTEL OPERA RICHEPANSE,IWPAR549,2026-04-14 09:15:30,48.86872,2.32521,FR,75001,PARIS,['14 R CHEVALIER ST GEORGE'],False,nan,Paris
UI,PAR,700057407,MANOIR SAINT GERMAIN DES PRES HOTEL,UIPAR444,2026-04-08 17:53:53,48.85378,2.33232,FR,75006,PARIS,['153 BOULEVARD SAINT GERMAIN'],False,nan,Paris
EN,PAR,700134143,MAMA SHELTER PARIS EAST,ENPARSHE,2026-03-28 09:42:24,48.85978,2.40284,FR,75020,PARIS,['109 RUE DE BAGNOLET'],False,RT,Paris
GT,PAR,538483677,TULIP HTL & RESID-MARNE-LA-VALLEE TORCY,GTPARK18,2026-03-13 18:31:17,48.8387,2.65752,FR,77200,TORCY,['3 AVENUE JEAN MOULIN'],False,LI,Paris
FG,PAR,701120785,HOTEL PARADISO,FGPARPAR,2025-06-02 14:22:23,48.84824,2.39331,FR,75012,PARIS,['135 BOULEVARD DIDEROT'],False,nan,Paris
WV,PAR,700029555,HOTEL ANDRE LATIN,WVPAR842,2025-04-30 07:52:54,48.84288,2.34261,FR,75005,PARIS,['50 RUE GAY LUSSAC'],False,TC,Paris
BR,PAR,700020059,RENAISSANCE PARIS LA DEFENSE,BRPARLDB,2026-04-12 05:07:29,48.89258,2.23292,FR,92918,PARIS,['60 JARDIN DE VALMY'],False,EM,Paris
BW,PAR,700668833,BEST WESTERN HOTEL JOURNEL PARIS SUD,BWPAR854,2025-12-17 12:11:22,48.65695,2.40538,FR,91130,RIS ORANGIS,['8 RUE DU CLOS'],False,EW,Paris
YX,PAR,700130989,HOTEL LEOPOLD,YXPARA34,2026-01-08 08:21:10,48.8401,2.33063,FR,75014,PARIS,['225 BOULEVARD RASPAIL'],False,nan,Paris
BD,PAR,700943007,B&B HOTEL MASSY GARE TGV,BDPARMAS,2026-03-26 09:43:18,48.72254,2.27039,FR,91300,MASSY,['15 RUE GALVANI'],False,LK,Paris
OK,PAR,700030860,LIBERTEL GARE DE L'EST FRANCAIS,OKPAR51U,2023-08-01 09:50:53,48.87619,2.35706,FR,75010,PARIS,['13 RUE DU 8 MAI 1945'],False,nan,Paris
AC,PAR,700010911,PARIS BASTILLE,ACPARH32,2026-04-14 09:15:29,48.85096,2.36994,FR,75012,PARIS,['67 RUE DE LYON'],False,nan,Paris
YX,PAR,700030336,HOTEL MONCEAU WAGRAM,YXPARMWA,2026-02-20 07:21:11,48.88087,2.29895,FR,75017,PARIS,['7 RUE RENNEQUIN'],False,nan,Paris
RT,PAR,700012808,MERCURE MLV BUSSY ST GEORGES,RTPARBUS,2026-04-02 23:22:35,48.83849,2.71098,FR,77600,BUSSY SAINT GEORGES,['44 BOULEVARD ANTOINE GIROUST'],False,RT,Paris
RT,PAR,700091635,IBIS PARIS LEVALLOIS-PERRET,RTPARLEV,2026-04-01 09:23:53,48.89136,2.2898,FR,92300,LEVALLOIS PERRET,['24 RUE DE TREBOIS'],False,RT,Paris
FG,PAR,700158051,GREEN PARK HOTEL PARIS,FGPARGRE,2025-01-05 09:09:03,48.87835,2.38425,FR,75019,PARIS,['4 RUE HASSARD'],False,nan,Paris
OL,PAR,701296849,SAX PARIS LXR HOTELS AND RESORTS,OLPAR290,2026-03-26 12:12:33,48.8468,2.31276,FR,75007,PARIS,['55 AVENUE DE SAXE'],False,EH,Paris
UI,PAR,700010116,HOTEL AND SPA ROYAL MADELEINE,UIPARALT,2026-04-08 16:47:35,48.87289,2.32401,FR,75008,PARIS,['29 RUE DE L ARCADE'],False,nan,Paris
YX,PAR,700058681,LES DAMES DU PANTHEON,YXPAR345,2025-10-28 23:41:44,48.84451,2.34545,FR,75005,PARIS,['19 PLACE DU PANTHEON'],False,nan,Paris
RT,PAR,700092484,IBIS SENLIS,RTPARSEN,2026-04-01 07:12:33,49.20844,2.60577,FR,60300,SENLIS,['72 AVENUE DU GENERAL DE GAULLE'],False,RT,Paris
AC,PAR,700750416,PARIS HOTEL CLICHY,ACPARN91,2025-02-21 08:53:58,48.90209,2.31312,FR,92110,CLICHY LA GARENNE,['3 RUE HENRI POINCARE'],False,nan,Paris
YX,PAR,700250650,APPARTCITY PARIS VELIZY,YXPARACV,2026-01-08 14:25:54,48.78043,2.20651,FR,78140,VELIZY VILLACOUBLAY,['3 AVENUE MORANE SAULNIER'],False,nan,Paris
RT,PAR,700060202,MERCURE PARIS MASSY GARE TGV,RTPARGAR,2026-04-14 09:15:29,48.72751,2.26487,FR,91886,MASSY,"['21, AVENUE CARNOT']",False,RT,Paris
NN,PAR,700038398,CAMPANILE PRIME - BUSSY-SAINT-GEORGES,NNPARC35,2026-04-09 10:27:56,48.83204,2.70497,FR,77600,BUSSY ST GEORGES,"['8 AV MARIE CURIE', 'ZAC DU CENTRE VILLE']",False,LI,Paris
YX,PAR,701042318,CHEVAL BLANC PARIS,YXPARCBP,2026-02-18 13:58:24,48.8588,2.34186,FR,75001,PARIS,['8 QUAI DU LOUVRE'],False,nan,Paris
DS,PAR,700018145,HOTEL WALLACE,DSPARWAL,2026-02-20 15:13:37,48.84613,2.29846,FR,75015,PARIS,['89 RUE FONDARY'],False,nan,Paris
RT,PAR,700080433,MERCURE PARIS IVRY QUAI DE SEINE,RTPARIVR,2026-04-01 09:43:54,48.81817,2.40056,FR,94200,IVRY SUR SEINE,['5 ALLEE DE LA SEINE'],False,RT,Paris
NN,PAR,700330871,PREMIERE CLASSE PARIS NORD - SARCELLES,NNPARP55,2025-10-14 14:28:47,49.0,2.38333,FR,95200,SARCELLES,"['ZONE D ACTIVITE', '1 RUE DU VIGNOLLE']",False,LI,Paris
RT,PAR,700032364,NOVOTEL PARIS 17,RTPARPOR,2026-04-01 09:09:53,48.89185,2.30216,FR,75017,PARIS,['34 AVENUE PORTE D ASNIERES'],False,RT,Paris
NN,PAR,700124044,KYRIAD ECO - BUSSY-ST-GEORGES,NNPARP36,2026-03-26 16:23:02,48.83248,2.70544,FR,77600,BUSSY SAINT GEORGES,['8 AVENUE MARIS CURIE'],False,LI,Paris
AC,PAR,700020653,JARDIN LE BREA,ACPARF74,2025-11-06 17:01:10,48.84291,2.32985,FR,75006,PARIS,['14 RUE BREA'],False,nan,Paris
WB,PAR,700024751,HOTEL BALZAC PARIS,WBPARBAZ,2026-01-30 21:32:17,48.87334,2.30039,FR,75008,PARIS,['6 RUE BALZAC'],False,nan,Paris
RT,PAR,701246419,ADAGIO PARIS BOULOGNE,RTPARAPB,2026-03-28 12:52:25,48.82855,2.23903,FR,92100,BOULOGNE BILLANCOURT,['770 RUE YVES KERMEN'],False,RT,Paris
HS,PAR,700045865,AURIANE PORTE DE VERSAILLES,HSPARBFS,2023-08-01 09:54:03,48.83411,2.29521,FR,75015,PARIS,"['60, RUE OLIVIER DE SERRES']",False,nan,Paris
FG,PAR,700021970,HOTEL MALTE - ASTOTEL,FGPAR627,2025-06-02 13:33:17,48.86715,2.33752,FR,75002,PARIS,['63 RUE DE RICHELIEU'],False,nan,Paris
AC,PAR,700092058,DE LA PAIX TOUR EIFFEL,ACPARI69,2024-09-06 16:10:13,48.85681,2.30304,FR,75007,PARIS,['19 RUE DU GROS CAILLOU'],False,nan,Paris
RT,PAR,700083440,ADAGIO ACCESS DEFENSE CHARRAS,RTPARDEF,2026-03-28 09:07:06,48.89482,2.2491,FR,92400,COURBEVOIE,['1 RUE DE BITCHE'],False,RT,Paris
NN,PAR,700135770,PREMIERE CLASSE CERGY SAINT CHRISTOPHE,NNPARP17,2025-10-14 10:51:46,49.05411,2.0189,FR,95800,CERGY,['RN 14 RUE DE LA POMPE'],False,LI,Paris
DS,PAR,700365081,LE ROCH HOTEL AND SPA,DSPARLRH,2026-04-13 20:13:13,48.86623,2.3329,FR,75001,PARIS,['28 RUE SAINT ROCH'],False,nan,Paris
AC,PAR,700092039,DANEMARK HOTEL,ACPAR375,2026-04-14 09:15:29,48.8434,2.32988,FR,75006,PARIS,['21 RUE VAVIN'],False,nan,Paris
AC,PAR,700045507,ALEXANDRINE OPERA,ACPARF08,2025-12-19 12:38:36,48.88005,2.32627,FR,75008,PARIS,['10 RUE DE MOSCOU'],False,nan,Paris
YX,PAR,700092011,DES DUCS D ANJOU HOTEL,YXPARH64,2025-10-28 20:18:38,48.85986,2.34712,FR,75001,PARIS,['1 RUE SAINTE OPPORTUNE'],False,nan,Paris
FG,PAR,700009212,GRAND HOTEL LAFAYETTE,FGPARFAY,2025-07-08 14:13:55,48.87501,2.34165,FR,75009,PARIS,['6 RUE BUFFAULT'],False,nan,Paris
RT,PAR,700020058,ADAGIO PARIS BUTTES CHAUMONT,RTPAR673,2026-04-01 10:00:06,48.87829,2.38651,FR,75019,PARIS,['3 - 5 COURS DU 7EME ART'],False,RT,Paris
RT,PAR,700024146,IBIS STYLES PARIS 15 LECOURBE,RTPARALL,2026-03-30 08:53:36,48.83883,2.2894,FR,75015,PARIS,['192 RUE DE LA CROIX NIVERT'],False,RT,Paris
IW,PAR,700374888,MAISON ALBAR - LE PONT-NEUF,IWPARMNA,2026-04-14 09:15:29,48.86061,2.34419,FR,75001,PARIS,['23 RUE DU PONT NEUF'],False,nan,Paris
WV,PAR,700006914,TIMHOTEL PARIS GARE DE L EST,WVPAR729,2026-02-18 18:02:38,48.87493,2.36018,FR,75010,PARIS,['27 RUE DES RECOLLETS'],False,TC,Paris
FG,PAR,700010322,HOTEL MONTEROSA - ASTOTEL,FGPAR972,2025-07-16 11:55:24,48.87945,2.3342,FR,75009,PARIS,['30 RUE LA BRUYERE'],False,nan,Paris
NN,PAR,700220203,PREMIERE CLASSE ROISSY LE MESNIL AMELOT,NNPARP10,2026-01-17 07:31:47,49.01781,2.58678,FR,77990,LE MESNIL AMELOT,['RUE DU STADE SAUVANET'],False,LI,Paris
SB,PAR,700008353,HOTEL L ECHIQUIER OPERA PARIS,SBPARCHI,2026-04-01 23:20:44,48.87177,2.34927,FR,75010,PARIS,['38 RUE DE L ECHIQUIER'],False,RT,Paris
FG,PAR,700054606,HOTEL ROI DE SICILE RIVOLI,FGPARROI,2026-02-01 09:08:05,48.85599,2.35734,FR,75004,PARIS,['19 RUE DE RIVOLI'],False,nan,Paris
FG,PAR,700282352,HOTEL LES BAINS,FGPARLEB,2025-06-02 12:21:30,48.86395,2.35191,FR,75003,PARIS,['7 RUE DU BOURG L ABBE'],False,nan,Paris
RT,PAR,700054094,IBIS STYLES ASNIERES CENTRE,RTPARWIL,2026-04-06 23:21:20,48.90649,2.28741,FR,92600,ASNIERES SUR SEINE,['10 BIS RUE DU CHATEAU'],False,RT,Paris
KY,PAR,700225194,SEROTEL SUITES,KYPARSER,2023-11-16 09:58:43,48.87624,2.34835,FR,75009,PARIS,['77 RUE FAUBOURG POISSONIERE'],False,nan,Paris
AC,PAR,700072175,ROYAL BERGERE,ACPARROY,2024-08-27 10:30:28,48.87341,2.34395,FR,75009,PARIS,['8 RUE GEOFFROY MARIE'],False,nan,Paris
YX,PAR,700026288,HOTEL RASPAIL MONTPARNASSE,YXPARBJQ,2025-10-30 07:00:07,48.84166,2.33001,FR,75014,PARIS,['203 BOULEVARD RASPAIL'],False,nan,Paris
RT,PAR,700020506,MERCURE MONTMARTRE BASILIQUE,RTPARPIG,2026-03-28 06:59:15,48.88261,2.3416,FR,75018,PARIS,['100 BOULEVARD DE ROCHECHOUART'],False,RT,Paris
FG,PAR,700174462,HOTEL MONTSOURIS ORLEANS,FGPARORL,2025-09-09 07:11:00,48.82407,2.33008,FR,75014,PARIS,['15 RUE BEAUNIER'],False,nan,Paris
FG,PAR,700050866,CHAMPERRET ELYSEES,FGPARCHM,2025-06-02 14:08:10,48.88522,2.29396,FR,75017,PARIS,"['129,AVENUE DE VILLIERS']",False,nan,Paris
YX,PAR,700011327,PRINCESSE CAROLINE,YXPARPCA,2026-03-05 14:55:16,48.87562,2.29567,FR,75017,PARIS,['1 BIS RUE TROYON'],False,nan,Paris
YX,PAR,700149084,SEJOURS AFFAIRES NANTERRE,YXPARILH,2025-10-30 07:08:09,48.88499,2.19614,FR,92000,NANTERRE,['50 RUE DES VIGNES'],False,nan,Paris
BD,PAR,700504327,B&B HOTEL BRETIGNY SUR ORGE,BDPARBRE,2026-03-26 09:43:51,48.62409,2.29904,FR,91220,BRETIGNY-SUR-ORGE,['FRANCILIENNE SORTIE 42'],False,LK,Paris
YX,PAR,700141691,TEST,YXPARPAR,2025-05-06 18:13:49,48.84488,2.32078,FR,75006,PARIS,['33 BD DU MONTPARNASSE'],False,nan,Paris
RT,PAR,700165026,HIPARK BY ADAGIO VAL D EUROPE,RTPARHIA,2026-04-01 10:30:47,48.85857,2.78608,FR,77000,SERRIS,['18 COURS DE L ELBE'],False,RT,Paris
RT,PAR,700047691,IBIS PARIS LA DEFENSE ESPLANADE HOTEL,RTPARLAD,2026-04-01 07:15:49,48.88787,2.25236,FR,92400,LA DEFENSE,"['4 BOULEVARD DE NEUILLY LA DEFENSE', '1 - PONT DE NEUILLY']",False,RT,Paris
NN,PAR,700091111,CAMPANILE CESSON VERT ST DENIS,NNPARC48,2026-03-23 10:30:41,48.56675,2.63322,FR,77240,CESSON,"['260 AV DE L EUROPE', 'VERT SAINT DENIS']",False,LI,Paris
AC,PAR,701034459,LION DOR PARIS HOTEL,ACPARC91,2026-04-14 09:15:37,48.86537,2.33178,FR,75001,PARIS,['6 RUE DE LA SOURDIERE'],False,nan,Paris
YX,PAR,700021296,HOTEL BEL AMI,YXPARALL,2025-12-23 08:25:49,48.85474,2.33305,FR,75006,PARIS,['7/11 RUE ST-BENOIT'],False,nan,Paris
RT,PAR,700060516,NOVOTEL CHATEAU DE VERSAILLES,RTPARLEC,2026-03-28 07:22:08,48.8157,2.12815,FR,78150,LE CHESNAY,['4 BLD SAINT ANTOINE'],False,RT,Paris
YX,PAR,700033665,HOTEL MURAT,YXPAR030,2025-10-28 18:55:40,48.83743,2.25876,FR,75016,PARIS,['119 BIS BOULEVARD MURAT'],False,nan,Paris
KY,PAR,700046936,PAXTON PARIS MLV,KYPARPTO,2025-10-07 07:47:20,48.828,2.70959,FR,77164,PARIS,['1 AV JOSEPH PAXTON'],False,nan,Paris
RT,PAR,701247125,TRIBE PARIS CLICHY,RTPARTPC,2026-03-30 12:27:18,48.90394,2.30287,FR,92110,CLICHY,['105 BD JEAN JAURES'],False,RT,Paris
FG,PAR,700030379,HOTEL ROYAL SAINT GERMAIN,FGPAR639,2023-08-01 09:50:46,48.84493,2.32511,FR,75006,PARIS,['159 RUE DE RENNES'],False,nan,Paris
AC,PAR,701295094,ODALYS CITY LEVALLOIS MAURICE RAVEL,ACPARQ87,2025-09-12 07:20:39,48.89464,2.29547,FR,92300,LEVALLOIS-PERRET,['2 RUE TREZEL'],False,nan,Paris
RT,PAR,700033305,IBIS STYLES PARIS MAIRIE DE MONTREUIL,RTPARMOT,2026-03-30 09:52:05,48.86253,2.44354,FR,93100,MONTREUIL,['15 19 RUE FRANKLIN'],False,RT,Paris
RT,PAR,700024281,MERCURE PARIS PORTE DE PANTIN,RTPARLIR,2026-04-14 09:15:28,48.89024,2.39936,FR,93500,PANTIN,"['22 AVENUE JEAN LOLIVE', 'PANTIN']",False,RT,Paris
AC,PAR,700091373,EUROHOTEL ORLY RUNGIS,ACPARG22,2025-01-14 15:16:03,48.75336,2.33684,FR,94260,FRESNES,"['63, AVENUE PARC MEDICIS']",False,nan,Paris
RT,PAR,701242479,IBIS STYLES PARIS VILLEJUIF,RTPARISV,2026-04-01 13:01:42,48.78865,2.36913,FR,94800,VILLEJUIF,['11 AVENUE LOUIS ARAGON'],False,RT,Paris
RT,PAR,700802981,ADAGIO PARIS NATION,RTPARION,2026-04-01 10:59:32,48.8407,2.39787,FR,75012,PARIS,['17 RUE LAMBLARDIE'],False,RT,Paris
UI,PAR,700059760,LA PERLE HOTEL,UIPARPER,2026-04-08 18:26:36,48.85212,2.33365,FR,75006,PARIS,['14 RUE DES CANETTES'],False,nan,Paris
FG,PAR,700029517,VILLA SAXE EIFFEL HOTEL,FGPARE68,2026-04-14 09:15:29,48.84972,2.30961,FR,75007,PARIS,['9 VILLA DE SAXE'],False,nan,Paris
WK,PAR,700014208,WARWICK PARIS,WKPARWAR,2025-07-25 07:21:54,48.87223,2.30304,FR,75008,PARIS,['5 RUE DE BERRI'],False,TC,Paris
AC,PAR,700092144,EUROHOTEL PARIS CRETEIL,ACPARG21,2026-04-14 09:15:14,48.76539,2.47163,FR,94000,CRETEIL,"['12, AVENUE FERNAND POUILLON']",False,nan,Paris
RT,PAR,700055802,ADAGIO PARIS OPERA,RTPAROPE,2026-04-01 10:08:06,48.87272,2.32817,FR,75009,PARIS,['43 RUE CAUMARTIN'],False,RT,Paris
QQ,PAR,700545277,NIEPCE PARIS HTL CURIO COLLECTION,QQPAR705,2026-03-30 04:05:15,48.83487,2.31832,FR,75014,PARIS,['4 RUE NI PCE'],False,EH,Paris
AZ,PAR,700041112,CITADINES PLACE D ITALIE PARIS,AZPAROIT,2026-04-01 17:26:03,48.83059,2.35493,FR,75013,PARIS,['18 PLACE DITALIE'],False,nan,Paris
YX,PAR,700211389,RESIDHOME NEUILLY BORDS DE MARNE,YXPARNBD,2025-12-13 04:05:05,48.85145,2.51335,FR,93360,NEUILLY PLAISANCE,['1 RUE DU CANAL'],False,nan,Paris
YX,PAR,700225358,HOTEL DAVAL,YXPARCEJ,2025-10-30 09:29:15,48.85466,2.37113,FR,75011,PARIS,['21 RUE DAVAL'],False,nan,Paris
RT,PAR,700010549,NOVOTEL PARIS LES HALLES,RTPARNOV,2026-04-14 09:15:29,48.8606,2.34656,FR,75001,PARIS,['8 PLACE MARGUERITE DE NAVARRE'],False,RT,Paris
RT,PAR,700233228,IBIS BUDGET VERSAILLES FORUM,RTPARIBB,2026-03-28 09:25:23,48.75426,1.93331,FR,78310,COIGNIERES,"['RUE DU GIBET', 'FORUM DE COIGNI#BCRES']",False,RT,Paris
YX,PAR,700054619,HOTEL DE GENEVE,YXPARHDG,2026-01-11 17:24:25,48.87773,2.32751,FR,75009,PARIS,['36 RUE DE LONDRES'],False,nan,Paris
RT,PAR,700031284,IBIS STYLES CADET LAFAYETTE,RTPARALS,2026-03-30 09:03:22,48.87824,2.34747,FR,75009,PARIS,['11 BIS RUE PIERRE SEMARD'],False,RT,Paris
NN,PAR,700135788,PREMIERE CLASSE PARIS-GENNEVILLIERS NORD,NNPARP04,2025-10-14 14:28:53,48.93315,2.30384,FR,92230,GENNEVILLIERS,['ZAC DES BARBANNIERS AVENUE DU GAL DE GAULLE'],False,LI,Paris
YX,PAR,700012071,HOTEL MAXIM FOLIES,YXPARMFO,2025-10-31 06:57:09,48.8737,2.34452,FR,75009,PARIS,['14 RUE GEOFFROY MARIE'],False,nan,Paris
RT,PAR,700092086,IBIS GARE DU NORD LA FAYETTE,RTPARLAF,2026-04-01 07:21:39,48.87806,2.35266,FR,75010,PARIS,['122 RUE LAFAYETTE'],False,RT,Paris
YX,PAR,701117226,HOTEL BELLE VILLE,YXPARLBV,2025-10-29 01:16:43,48.87715,2.40579,FR,75019,PARIS,['349 RUE DE BELLEVILLE'],False,nan,Paris
YX,PAR,701315653,LEON HOTEL,YXPARLEO,2025-12-23 11:18:49,48.88299,2.33602,FR,75018,PARIS,['40 BOULEVARD DE CLICHY'],False,nan,Paris
NN,PAR,700090990,CAMPANILE PRIME - PARIS OUEST BOULOGNE,NNPARC05,2025-10-31 06:28:17,48.8346,2.24246,FR,92100,BOULOGNE BILLANCOURT,"['5, RUE CARNOT']",False,LI,Paris
RT,PAR,700255706,IBIS PARIS AV REPUBLIQUE,RTPARQUE,2026-03-30 09:46:12,48.86652,2.36789,FR,75011,PARIS,['14 RUE RAMPON'],False,RT,Paris
AC,PAR,700092130,VILLA GLAMOUR TOUR EIFFEL,ACPAR455,2026-04-14 09:15:28,48.86458,2.27796,FR,75016,PARIS,['85 RUE DE LA POMPE'],False,nan,Paris
UI,PAR,701112849,HOTEL DANDY,UIPARDND,2026-04-08 19:09:17,48.86233,2.34959,FR,75001,PARIS,['86 RUE SAINT DENIS'],False,nan,Paris
UI,PAR,700328202,OFF PARIS SEINE,UIPARSEI,2026-04-08 19:00:16,48.84281,2.36789,FR,75013,PARIS,['86 QUAI D AUSTERLITZ'],False,nan,Paris
AC,PAR,700515205,ODALYS CITY LEVALLOIS PERRET PARIS,ACPARM09,2025-08-06 13:00:11,48.89564,2.29812,FR,92300,LEVALLOIS-PERRET,['34 RUE JULES VERNE'],False,nan,Paris
RT,PAR,700183381,IBIS BUDGET PONTAULT COMBAULT,RTPARULT,2026-03-28 09:46:08,48.77803,2.58903,FR,77340,PONTAULT COMBAULT,['2 ZA LA TETE DE BUIS RN 4'],False,RT,Paris
YX,PAR,700056616,HOTEL LE SINGULIER,YXPAR517,2025-10-31 16:21:22,48.86653,2.28527,FR,75016,PARIS,['38 RUE SAINT DIDIER'],False,nan,Paris
RT,PAR,700053876,IBIS STYLES MASSY OPERA,RTPARISM,2026-03-30 10:41:59,48.73301,2.28979,FR,91300,MASSY,['6 RUE DE L OPERA'],False,RT,Paris
YX,PAR,700058798,HOTEL EXCELSIOR OPERA,YXPAREXO,2025-12-30 12:15:52,48.87353,2.33449,FR,75009,PARIS,['5 RUE LA FAYETTE'],False,nan,Paris
WV,PAR,701148791,THE PEOPLE PARIS NATION,WVPAR831,2026-02-14 14:13:30,48.84759,2.39733,FR,75012,PARIS,['28B PLACE DE LA NATION'],False,TC,Paris
HI,PAR,700062264,HOLIDAY INN AUTEUIL,HIPAR880,2026-04-13 02:39:33,48.83798,2.25847,FR,75016,PARIS,['21 RUE GUDIN'],False,6C,Paris
